{"type":"FeatureCollection","name":"Lighthouses","crs":{"type":"name","properties":{"name":"urn:ogc:def:crs:EPSG::27700"}},"features":[{"type":"Feature","properties":{"fid":1,"Name":"Anvil Point Lighthouse","id":"LH001","Town":"Swanage","Locality":"Durlston","Parish":"Swanage CP","County":"Dorset"},"geometry":{"type":"Point","coordinates":[-1.9599697,50.5919032]}},{"type":"Feature","properties":{"fid":2,"Name":"Bamburgh Lighthouse","id":"LH002","Town":"Bamburgh","Locality":"Bamburgh","Parish":"Bamburgh CP","County":"Northumberland"},"geometry":{"type":"Point","coordinates":[-1.7242374,55.6165344]}},{"type":"Feature","properties":{"fid":3,"Name":"Beachy Head Lighthouse","id":"LH003","Town":"Eastbourne","Locality":"Meads","Parish":null,"County":"East Sussex"},"geometry":{"type":"Point","coordinates":[0.2414954,50.7337475]}},{"type":"Feature","properties":{"fid":4,"Name":"Berkeley Pill Rear Light","id":"LH004","Town":"Clapton","Locality":"Oakhunger","Parish":"Ham and Stone CP","County":"Gloucestershire"},"geometry":{"type":"Point","coordinates":[-2.4903959,51.6982243]}},{"type":"Feature","properties":{"fid":5,"Name":"Berkeley Pill Front Light","id":"LH005","Town":"Clapton","Locality":"Oakhunger","Parish":"Ham and Stone CP","County":"Gloucestershire"},"geometry":{"type":"Point","coordinates":[-2.4900762,51.6997478]}},{"type":"Feature","properties":{"fid":6,"Name":"Berry Head Lighthouse","id":"LH006","Town":"Brixham","Locality":"Brixham","Parish":"Brixham CP","County":"Devon"},"geometry":{"type":"Point","coordinates":[-3.4834395,50.3995633]}},{"type":"Feature","properties":{"fid":7,"Name":"Berwick Lighthouse","id":"LH007","Town":"Berwick-upon-Tweed","Locality":"Spittal","Parish":"Berwick-upon-Tweed CP","County":"Northumberland"},"geometry":{"type":"Point","coordinates":[-1.9841811,55.7647887]}},{"type":"Feature","properties":{"fid":8,"Name":"Bishop Rock Lighthouse","id":"LH008","Town":"Hugh Town","Locality":"St Agnes","Parish":"St. Agnes CP","County":"Cornwall"},"geometry":{"type":"Point","coordinates":[-6.4455521,49.8728724]}},{"type":"Feature","properties":{"fid":9,"Name":"Bull Point Lighthouse","id":"LH009","Town":"Mortehoe","Locality":"Mortehoe","Parish":"Mortehoe CP","County":"Devon"},"geometry":{"type":"Point","coordinates":[-4.2011583,51.1990724]}},{"type":"Feature","properties":{"fid":10,"Name":"Burnham-on-Sea Low Lighthouse","id":"LH010","Town":"Burnham-on-Sea","Locality":"Burnham-on-Sea","Parish":"Burnham-on-Sea and Highbridge CP","County":"Somerset"},"geometry":{"type":"Point","coordinates":[-3.005869,51.2484108]}},{"type":"Feature","properties":{"fid":11,"Name":"Chapel Rock Lighthouse","id":"LH011","Town":"Beachley","Locality":"Beachley","Parish":"Tidenham CP","County":"Gloucestershire"},"geometry":{"type":"Point","coordinates":[-2.6534741,51.6072156]}},{"type":"Feature","properties":{"fid":12,"Name":"Coquet Lighthouse","id":"LH012","Town":"Amble","Locality":"Low Hauxley","Parish":"Hauxley CP","County":"Northumberland"},"geometry":{"type":"Point","coordinates":[-1.5397865,55.3338014]}},{"type":"Feature","properties":{"fid":13,"Name":"Cromer Lighthouse","id":"LH013","Town":"Cromer","Locality":"Suffield Park","Parish":"Cromer CP","County":"Norfolk"},"geometry":{"type":"Point","coordinates":[1.3165138,52.9246597]}},{"type":"Feature","properties":{"fid":14,"Name":"Crow Point Lighthouse","id":"LH014","Town":"Appledore (Torridge)","Locality":"Appledore","Parish":"Braunton CP","County":"Devon"},"geometry":{"type":"Point","coordinates":[-4.1898081,51.0661658]}},{"type":"Feature","properties":{"fid":15,"Name":"Dungeness Lighthouse","id":"LH015","Town":"Dungeness","Locality":"Dungeness","Parish":"Lydd CP","County":"Kent"},"geometry":{"type":"Point","coordinates":[0.9759858,50.9134379]}},{"type":"Feature","properties":{"fid":16,"Name":"Eddystone Lighthouse","id":"LH016","Town":"Cawsand and Kingsand","Locality":"Rame","Parish":"Maker-with-Rame CP","County":"Cornwall"},"geometry":{"type":"Point","coordinates":[-4.268055,50.1837301]}},{"type":"Feature","properties":{"fid":17,"Name":"Farne Island Lighthouse","id":"LH017","Town":"Seahouses and North Sunderland","Locality":"Seahouses","Parish":"North Sunderland CP","County":"Northumberland"},"geometry":{"type":"Point","coordinates":[-1.6556249,55.6153316]}},{"type":"Feature","properties":{"fid":18,"Name":"Flamborough Head Lighthouse","id":"LH018","Town":"Flamborough","Locality":"North Marine Estate","Parish":"Flamborough CP","County":"East Riding of Yorkshire"},"geometry":{"type":"Point","coordinates":[-0.0827105,54.1163734]}},{"type":"Feature","properties":{"fid":19,"Name":"Beach Lighthouse","id":"LH019","Town":"Fleetwood","Locality":"Knott End-on-Sea","Parish":"Fleetwood CP","County":"Lancashire"},"geometry":{"type":"Point","coordinates":[-3.0090663,53.9285577]}},{"type":"Feature","properties":{"fid":20,"Name":"Pharos Lighthouse","id":"LH020","Town":"Fleetwood","Locality":"Knott End-on-Sea","Parish":"Fleetwood CP","County":"Lancashire"},"geometry":{"type":"Point","coordinates":[-3.0075221,53.9265199]}},{"type":"Feature","properties":{"fid":21,"Name":"Folkestone Lighthouse","id":"LH021","Town":"Folkestone","Locality":"Folkestone","Parish":"Folkestone CP","County":"Kent"},"geometry":{"type":"Point","coordinates":[1.1948434,51.076049]}},{"type":"Feature","properties":{"fid":22,"Name":"Godrevy Lighthouse","id":"LH022","Town":"Hayle","Locality":"Gwithian","Parish":"Gwinear-Gwithian CP","County":"Cornwall"},"geometry":{"type":"Point","coordinates":[-5.4002125,50.2424265]}},{"type":"Feature","properties":{"fid":23,"Name":"Gorleston South Pier Lighthouse","id":"LH023","Town":"Gorleston-on-Sea","Locality":"Gorleston-on-Sea","Parish":null,"County":"Norfolk"},"geometry":{"type":"Point","coordinates":[1.738034,52.5721368]}},{"type":"Feature","properties":{"fid":24,"Name":"Guile Point East Lighthouse","id":"LH024","Town":"Belford","Locality":"Holy Island","Parish":"Middleton CP","County":"Northumberland"},"geometry":{"type":"Point","coordinates":[-1.7932274,55.658189]}},{"type":"Feature","properties":{"fid":25,"Name":"Happisburgh Lighthouse","id":"LH025","Town":"Happisburgh","Locality":"Happisburgh","Parish":"Happisburgh CP","County":"Norfolk"},"geometry":{"type":"Point","coordinates":[1.537033,52.8204716]}},{"type":"Feature","properties":{"fid":26,"Name":"Hartland Point Lighthouse","id":"LH026","Town":"Hartland","Locality":"Titchberry","Parish":"Hartland CP","County":"Devon"},"geometry":{"type":"Point","coordinates":[-4.5254615,51.0220063]}},{"type":"Feature","properties":{"fid":27,"Name":"Heugh Lighthouse","id":"LH027","Town":"Hartlepool","Locality":"Croft on Heugh","Parish":"Headland CP","County":"Durham"},"geometry":{"type":"Point","coordinates":[-1.1761601,54.69651]}},{"type":"Feature","properties":{"fid":28,"Name":"Herd Groyne Light","id":"LH028","Town":"South Shields","Locality":"The Lawe","Parish":null,"County":"Tyne & Wear"},"geometry":{"type":"Point","coordinates":[-1.424075,55.0080281]}},{"type":"Feature","properties":{"fid":29,"Name":"Heugh Hill Lighthouse","id":"LH029","Town":"Belford","Locality":"Holy Island","Parish":"Holy Island CP","County":"Northumberland"},"geometry":{"type":"Point","coordinates":[-1.7997175,55.6681961]}},{"type":"Feature","properties":{"fid":30,"Name":"Hillbre Island Lighthouse","id":"LH030","Town":"Hoylake","Locality":"West Kirby","Parish":null,"County":"Merseyside"},"geometry":{"type":"Point","coordinates":[-3.2285132,53.383144]}},{"type":"Feature","properties":{"fid":31,"Name":"Hurst Point Lighthouse","id":"LH031","Town":"Freshwater and Totland","Locality":"Keyhaven","Parish":"Milford-on-Sea CP","County":"Hampshire"},"geometry":{"type":"Point","coordinates":[-1.5503277,50.7079503]}},{"type":"Feature","properties":{"fid":32,"Name":"Ilfracombe Lighthouse","id":"LH032","Town":"Ilfracombe","Locality":"Chambercombe","Parish":"Ilfracombe CP","County":"Devon"},"geometry":{"type":"Point","coordinates":[-4.1130033,51.2111258]}},{"type":"Feature","properties":{"fid":33,"Name":"Instow Range Front Light","id":"LH033","Town":"Instow","Locality":"Instow","Parish":"Instow CP","County":"Devon"},"geometry":{"type":"Point","coordinates":[-4.1778225,51.0603641]}},{"type":"Feature","properties":{"fid":34,"Name":"Instow Range Rear Light","id":"LH034","Town":"Instow","Locality":"Instow Town","Parish":"Instow CP","County":"Devon"},"geometry":{"type":"Point","coordinates":[-4.1725858,51.0586573]}},{"type":"Feature","properties":{"fid":35,"Name":"Killingholme High Lighthouse","id":"LH035","Town":"North Killingholme","Locality":"Immingham","Parish":"South Killingholme CP","County":"Lincolnshire"},"geometry":{"type":"Point","coordinates":[-0.2187951,53.6471912]}},{"type":"Feature","properties":{"fid":36,"Name":"Killingholme South Low Lighthouse","id":"LH036","Town":"North Killingholme","Locality":"Immingham","Parish":"South Killingholme CP","County":"Lincolnshire"},"geometry":{"type":"Point","coordinates":[-0.2161805,53.6465168]}},{"type":"Feature","properties":{"fid":37,"Name":"Lizard Lighthouse","id":"LH037","Town":"Lizard","Locality":"Housel Bay","Parish":"Landewednack CP","County":"Cornwall"},"geometry":{"type":"Point","coordinates":[-5.2021144,49.9602048]}},{"type":"Feature","properties":{"fid":38,"Name":"Longships Lighthouse","id":"LH038","Town":"Kelynack","Locality":"Trevescan","Parish":"Sennen CP","County":"Cornwall"},"geometry":{"type":"Point","coordinates":[-5.7468549,50.0668653]}},{"type":"Feature","properties":{"fid":39,"Name":"Longstone Lighthouse","id":"LH039","Town":"Seahouses and North Sunderland","Locality":"Seahouses","Parish":"North Sunderland CP","County":"Northumberland"},"geometry":{"type":"Point","coordinates":[-1.6107303,55.6437532]}},{"type":"Feature","properties":{"fid":40,"Name":"Lowestoft Lighthouse","id":"LH040","Town":"Lowestoft","Locality":"Roman Hill","Parish":"Lowestoft CP","County":"Suffolk"},"geometry":{"type":"Point","coordinates":[1.7559258,52.4870442]}},{"type":"Feature","properties":{"fid":41,"Name":"Lundy North Lighthouse","id":"LH041","Town":"Hartland","Locality":"Titchberry","Parish":null,"County":"Devon"},"geometry":{"type":"Point","coordinates":[-4.6772684,51.2017116]}},{"type":"Feature","properties":{"fid":42,"Name":"Lundy South Lighthouse","id":"LH042","Town":"Hartland","Locality":"Titchberry","Parish":null,"County":"Devon"},"geometry":{"type":"Point","coordinates":[-4.6558295,51.1620597]}},{"type":"Feature","properties":{"fid":43,"Name":"Lyde Rock Lighthouse","id":"LH043","Town":"Beachley","Locality":"Beachley","Parish":"Tidenham CP","County":"Gloucestershire"},"geometry":{"type":"Point","coordinates":[-2.6444031,51.6147659]}},{"type":"Feature","properties":{"fid":44,"Name":"Lynmouth Foreland Lighthouse","id":"LH044","Town":"Lynton","Locality":"Countisbury","Parish":"Brendon and Countisbury CP","County":"Devon"},"geometry":{"type":"Point","coordinates":[-3.7865958,51.2455434]}},{"type":"Feature","properties":{"fid":45,"Name":"Maryport New Lighthouse","id":"LH045","Town":"Maryport","Locality":"Glasson","Parish":"Maryport CP","County":"Cumbria"},"geometry":{"type":"Point","coordinates":[-3.5107058,54.7177531]}},{"type":"Feature","properties":{"fid":46,"Name":"Nab Tower","id":"LH046","Town":"South Hayling","Locality":"Eastoke","Parish":null,"County":"Hampshire"},"geometry":{"type":"Point","coordinates":[-0.9524699,50.6679625]}},{"type":"Feature","properties":{"fid":47,"Name":"Needles Lighthouse","id":"LH047","Town":"Freshwater and Totland","Locality":"Totland","Parish":"Totland CP","County":"Isle of Wight"},"geometry":{"type":"Point","coordinates":[-1.5917632,50.662247]}},{"type":"Feature","properties":{"fid":48,"Name":"South Foreland Lighthouse","id":"LH048","Town":"St Margaret's at Cliffe","Locality":"St Margaret's at Cliffe","Parish":"St. Margaret's At Cliffe CP","County":"Kent"},"geometry":{"type":"Point","coordinates":[1.3711272,51.1403696]}},{"type":"Feature","properties":{"fid":49,"Name":"North Foreland Lighthouse","id":"LH049","Town":"Broadstairs","Locality":"Kingsgate","Parish":"Broadstairs and St. Peters CP","County":"Kent"},"geometry":{"type":"Point","coordinates":[1.4450821,51.3748743]}},{"type":"Feature","properties":{"fid":50,"Name":"Pendeen Lighthouse","id":"LH050","Town":"Pendeen","Locality":"Lower Boscaswell","Parish":"St. Just CP","County":"Cornwall"},"geometry":{"type":"Point","coordinates":[-5.6715636,50.1649789]}},{"type":"Feature","properties":{"fid":51,"Name":"Peninnis Head Lighthouse","id":"LH051","Town":"Hugh Town","Locality":"Old Town","Parish":"St. Mary's CP","County":"Cornwall"},"geometry":{"type":"Point","coordinates":[-6.3035926,49.9046006]}},{"type":"Feature","properties":{"fid":52,"Name":"Plover Scar Lighthouse","id":"LH052","Town":"Middleton (Lancaster)","Locality":"Sunderland","Parish":"Cockerham CP","County":"Lancashire"},"geometry":{"type":"Point","coordinates":[-2.8826202,53.9814982]}},{"type":"Feature","properties":{"fid":53,"Name":"Plymouth Breakwater Lighthouse","id":"LH053","Town":"Plymouth","Locality":"Cremyll","Parish":null,"County":"Devon"},"geometry":{"type":"Point","coordinates":[-4.158721,50.334542]}},{"type":"Feature","properties":{"fid":54,"Name":"Portishead Point Lighthouse","id":"LH054","Town":"Portishead","Locality":"Woodhill","Parish":"Portishead CP","County":"Bristol"},"geometry":{"type":"Point","coordinates":[-2.7736121,51.4946134]}},{"type":"Feature","properties":{"fid":55,"Name":"Portland Bill Lighthouse","id":"LH055","Town":"Southwell (Dorset)","Locality":"Portland Bill","Parish":"Portland CP","County":"Dorset"},"geometry":{"type":"Point","coordinates":[-2.4563963,50.5141202]}},{"type":"Feature","properties":{"fid":56,"Name":"Portland Breakwater Lighthouse","id":"LH056","Town":"Fortuneswell","Locality":"Portland Port","Parish":"Portland CP","County":"Dorset"},"geometry":{"type":"Point","coordinates":[-2.4223431,50.5691885]}},{"type":"Feature","properties":{"fid":57,"Name":"Rampside Lighthouse","id":"LH057","Town":"Roa Island","Locality":"Rampside","Parish":"Barrow CP","County":"Cumbria"},"geometry":{"type":"Point","coordinates":[-3.1611877,54.0864384]}},{"type":"Feature","properties":{"fid":58,"Name":"Ramsgate West Pier Lighthouse","id":"LH058","Town":"Ramsgate","Locality":"Ramsgate","Parish":"Ramsgate CP","County":"Kent"},"geometry":{"type":"Point","coordinates":[1.4214933,51.3276872]}},{"type":"Feature","properties":{"fid":59,"Name":"Roker Pier Lighthouse","id":"LH059","Town":"Sunderland","Locality":"Roker","Parish":null,"County":"Tyne & Wear"},"geometry":{"type":"Point","coordinates":[-1.3524882,54.9213075]}},{"type":"Feature","properties":{"fid":60,"Name":"Round Island Lighthouse","id":"LH060","Town":"Hugh Town","Locality":"Old Grimsby","Parish":"Tresco CP","County":"Cornwall"},"geometry":{"type":"Point","coordinates":[-6.3230995,49.9789795]}},{"type":"Feature","properties":{"fid":61,"Name":"St Anthony Lighthouse","id":"LH061","Town":"St Mawes","Locality":"St Mawes","Parish":"Gerrans CP","County":"Cornwall"},"geometry":{"type":"Point","coordinates":[-5.016054,50.1411575]}},{"type":"Feature","properties":{"fid":62,"Name":"St. Bees Lighthouse","id":"LH062","Town":"St Bees","Locality":"Sandwith Newtown","Parish":"St. Bees CP","County":"Cumbria"},"geometry":{"type":"Point","coordinates":[-3.6366857,54.5136494]}},{"type":"Feature","properties":{"fid":63,"Name":"St. Catherine's Lighthouse","id":"LH063","Town":"Niton","Locality":"Niton","Parish":"Niton and Whitwell CP","County":"Isle of Wight"},"geometry":{"type":"Point","coordinates":[-1.2978438,50.5756195]}},{"type":"Feature","properties":{"fid":64,"Name":"Scarborough Lighthouse","id":"LH064","Town":"Scarborough","Locality":"St Nicholas Cliff","Parish":"Scarborough CP","County":"North Yorkshire"},"geometry":{"type":"Point","coordinates":[-0.3899293,54.2818763]}},{"type":"Feature","properties":{"fid":65,"Name":"Shoreham Lighthouse","id":"LH065","Town":"Shoreham-by-Sea","Locality":"Southwick","Parish":null,"County":"West Sussex"},"geometry":{"type":"Point","coordinates":[-0.2481954,50.8308639]}},{"type":"Feature","properties":{"fid":66,"Name":"South Gare Lighthouse","id":"LH066","Town":"Redcar","Locality":"South Gare Fisherman's Huts","Parish":null,"County":"North Yorkshire"},"geometry":{"type":"Point","coordinates":[-1.1374887,54.6474354]}},{"type":"Feature","properties":{"fid":67,"Name":"Southwold Lighthouse","id":"LH067","Town":"Southwold","Locality":"Southwold","Parish":"Southwold CP","County":"Suffolk"},"geometry":{"type":"Point","coordinates":[1.6813967,52.3272443]}},{"type":"Feature","properties":{"fid":68,"Name":"Start Point Lighthouse","id":"LH068","Town":"Stokenham","Locality":"Hallsands","Parish":"Stokenham CP","County":"Devon"},"geometry":{"type":"Point","coordinates":[-3.6423697,50.2224658]}},{"type":"Feature","properties":{"fid":69,"Name":"Tater Du Lighthouse","id":"LH069","Town":"St Buryan","Locality":"Lamorna","Parish":"St. Buryan, Lamorna and Paul CP","County":"Cornwall"},"geometry":{"type":"Point","coordinates":[-5.5774111,50.0523469]}},{"type":"Feature","properties":{"fid":70,"Name":"Teignmouth Lighthouse","id":"LH070","Town":"Teignmouth","Locality":"Teignmouth","Parish":"Teignmouth CP","County":"Devon"},"geometry":{"type":"Point","coordinates":[-3.496841,50.5424933]}},{"type":"Feature","properties":{"fid":71,"Name":"Thorngumbald Clough High Lighthouse","id":"LH071","Town":"Paull","Locality":"Paull","Parish":"Paull CP","County":"East Riding of Yorkshire"},"geometry":{"type":"Point","coordinates":[-0.2256372,53.7080992]}},{"type":"Feature","properties":{"fid":72,"Name":"Thorngumbald Clough Low Lighthouse","id":"LH072","Town":"Paull","Locality":"Paull","Parish":"Paull CP","County":"East Riding of Yorkshire"},"geometry":{"type":"Point","coordinates":[-0.2269085,53.7088214]}},{"type":"Feature","properties":{"fid":73,"Name":"Trevose Head Lighthouse","id":"LH073","Town":"Constantine Bay","Locality":"Constantine Bay","Parish":"St. Merryn CP","County":"Cornwall"},"geometry":{"type":"Point","coordinates":[-5.0352203,50.5492167]}},{"type":"Feature","properties":{"fid":74,"Name":"Tynemouth Lighthouse","id":"LH074","Town":"Tynemouth","Locality":"Tynemouth","Parish":null,"County":"Tyne & Wear"},"geometry":{"type":"Point","coordinates":[-1.4029422,55.0145182]}},{"type":"Feature","properties":{"fid":75,"Name":"South Shields Lighthouse","id":"LH075","Town":"Tynemouth","Locality":"Tynemouth","Parish":null,"County":"Tyne & Wear"},"geometry":{"type":"Point","coordinates":[-1.4010837,55.0112084]}},{"type":"Feature","properties":{"fid":76,"Name":"Walney Lighthouse","id":"LH076","Town":"Roa Island","Locality":"Roa Island","Parish":"Barrow CP","County":"Cumbria"},"geometry":{"type":"Point","coordinates":[-3.1772385,54.0486353]}},{"type":"Feature","properties":{"fid":77,"Name":"Watchet Harbour Lighthouse","id":"LH077","Town":"Watchet","Locality":"Watchet","Parish":"Watchet CP","County":"Somerset"},"geometry":{"type":"Point","coordinates":[-3.3286253,51.1839833]}},{"type":"Feature","properties":{"fid":78,"Name":"Whitby East Pier Lighthouse","id":"LH078","Town":"Whitby","Locality":"Whitby","Parish":"Whitby CP","County":"North Yorkshire"},"geometry":{"type":"Point","coordinates":[-0.6119338,54.4928433]}},{"type":"Feature","properties":{"fid":79,"Name":"Whitby West Pier Lighthouse","id":"LH079","Town":"Whitby","Locality":"Whitby","Parish":"Whitby CP","County":"North Yorkshire"},"geometry":{"type":"Point","coordinates":[-0.6130177,54.492851]}},{"type":"Feature","properties":{"fid":80,"Name":"Whitby Lighthouse","id":"LH080","Town":"Whitby","Locality":"Hawsker","Parish":"Hawsker-cum-Stainsacre CP","County":"North Yorkshire"},"geometry":{"type":"Point","coordinates":[-0.568222,54.4777905]}},{"type":"Feature","properties":{"fid":81,"Name":"Whitehaven West Pier Lighthouse","id":"LH081","Town":"Whitehaven","Locality":"Arrowthwaite","Parish":"Whitehaven CP","County":"Cumbria"},"geometry":{"type":"Point","coordinates":[-3.5986177,54.5528145]}},{"type":"Feature","properties":{"fid":82,"Name":"Whitgift Lighthouse","id":"LH082","Town":"Reedness","Locality":"Whitgift","Parish":"Twin Rivers CP","County":"East Riding of Yorkshire"},"geometry":{"type":"Point","coordinates":[-0.7575725,53.6988492]}},{"type":"Feature","properties":{"fid":83,"Name":"Wolf Rock Lighthouse","id":"LH083","Town":"Kelynack","Locality":"Trevilley","Parish":"Sennen CP","County":"Cornwall"},"geometry":{"type":"Point","coordinates":[-5.8080319,49.9455883]}},{"type":"Feature","properties":{"fid":84,"Name":"Belle Tout Lighthouse","id":"LH084","Town":"East Dean and Friston","Locality":"Birling Gap","Parish":null,"County":"East Sussex"},"geometry":{"type":"Point","coordinates":[0.214625,50.7383886]}},{"type":"Feature","properties":{"fid":85,"Name":"Bidston Lighthouse","id":"LH085","Town":"Birkenhead","Locality":"Bidston","Parish":null,"County":"Merseyside"},"geometry":{"type":"Point","coordinates":[-3.0743883,53.4011158]}},{"type":"Feature","properties":{"fid":86,"Name":"Black Nore Lighthouse","id":"LH086","Town":"Portishead","Locality":"Redcliffe Bay","Parish":"Portishead CP","County":"Somerset"},"geometry":{"type":"Point","coordinates":[-2.8006195,51.4847191]}},{"type":"Feature","properties":{"fid":87,"Name":"Blyth Old Light","id":"LH087","Town":"Blyth (Northumberland)","Locality":"Blyth","Parish":"Blyth CP","County":"Northumberland"},"geometry":{"type":"Point","coordinates":[-1.5000317,55.1254406]}},{"type":"Feature","properties":{"fid":88,"Name":"Trinity Buoy Wharf Lighthouse","id":"LH088","Town":"Tower Hamlets","Locality":"Trinity Buoy Wharf","Parish":null,"County":"Greater London"},"geometry":{"type":"Point","coordinates":[0.0083067,51.5076975]}},{"type":"Feature","properties":{"fid":89,"Name":"Brownsman Old Lighthouse","id":"LH089","Town":"Seahouses and North Sunderland","Locality":"Seahouses","Parish":"North Sunderland CP","County":"Northumberland"},"geometry":{"type":"Point","coordinates":[-1.6256699,55.6341916]}},{"type":"Feature","properties":{"fid":90,"Name":"Burnham-on-Sea High Lighthouse","id":"LH090","Town":"Burnham-on-Sea","Locality":"Burnham-on-Sea","Parish":"Burnham-on-Sea and Highbridge CP","County":"Somerset"},"geometry":{"type":"Point","coordinates":[-2.9990453,51.248883]}},{"type":"Feature","properties":{"fid":91,"Name":"Burnham-on-Sea Round Tower","id":"LH091","Town":"Burnham-on-Sea","Locality":"Burnham-on-Sea","Parish":"Burnham-on-Sea and Highbridge CP","County":"Somerset"},"geometry":{"type":"Point","coordinates":[-2.9986275,51.2399433]}},{"type":"Feature","properties":{"fid":92,"Name":"Chalk Tower","id":"LH092","Town":"Flamborough","Locality":"North Marine Estate","Parish":"Flamborough CP","County":"East Riding of Yorkshire"},"geometry":{"type":"Point","coordinates":[-0.0896247,54.1179956]}},{"type":"Feature","properties":{"fid":93,"Name":"Dovercourt Low Lighthouse","id":"LH093","Town":"Harwich","Locality":"Dovercourt","Parish":"Harwich CP","County":"Essex"},"geometry":{"type":"Point","coordinates":[1.2781456,51.930104]}},{"type":"Feature","properties":{"fid":94,"Name":"Dovercourt High Lighthouse","id":"LH094","Town":"Harwich","Locality":"Dovercourt","Parish":"Harwich CP","County":"Essex"},"geometry":{"type":"Point","coordinates":[1.2753826,51.930433]}},{"type":"Feature","properties":{"fid":95,"Name":"Dover Roman Pharos","id":"LH095","Town":"Dover","Locality":"Victoria Park Mews","Parish":"Dover CP","County":"Kent"},"geometry":{"type":"Point","coordinates":[1.3230124,51.1283608]}},{"type":"Feature","properties":{"fid":96,"Name":"Dungeness Old Lighthouse","id":"LH096","Town":"Dungeness","Locality":"Dungeness","Parish":"Lydd CP","County":"Kent"},"geometry":{"type":"Point","coordinates":[0.9697192,50.9137574]}},{"type":"Feature","properties":{"fid":97,"Name":"Egypt Point Light","id":"LH097","Town":"Cowes","Locality":"Gurnard","Parish":"Cowes CP","County":"Isle of Wight"},"geometry":{"type":"Point","coordinates":[-1.31388,50.7673061]}},{"type":"Feature","properties":{"fid":98,"Name":"Ellesmere Port Lighthouse","id":"LH098","Town":"Ellesmere Port","Locality":"Ellesmere Port","Parish":null,"County":"Cheshire"},"geometry":{"type":"Point","coordinates":[-2.8939579,53.2903407]}},{"type":"Feature","properties":{"fid":99,"Name":"Fish Quay Low Light","id":"LH099","Town":"Tynemouth","Locality":"The Lawe","Parish":null,"County":"Tyne & Wear"},"geometry":{"type":"Point","coordinates":[-1.4344466,55.009097]}},{"type":"Feature","properties":{"fid":100,"Name":"Fish Quay High Light","id":"LH100","Town":"Tynemouth","Locality":"North Shields","Parish":null,"County":"Tyne & Wear"},"geometry":{"type":"Point","coordinates":[-1.4378536,55.0086848]}},{"type":"Feature","properties":{"fid":101,"Name":"Fish Quay Old Low Light","id":"LH101","Town":"Tynemouth","Locality":"The Lawe","Parish":null,"County":"Tyne & Wear"},"geometry":{"type":"Point","coordinates":[-1.4338223,55.0095795]}},{"type":"Feature","properties":{"fid":102,"Name":"Fish Quay Old High Light","id":"LH102","Town":"Tynemouth","Locality":"North Shields","Parish":null,"County":"Tyne & Wear"},"geometry":{"type":"Point","coordinates":[-1.4368469,55.0092334]}},{"type":"Feature","properties":{"fid":103,"Name":"Gorleston Lighthouse","id":"LH103","Town":"Gorleston-on-Sea","Locality":"Gorleston-on-Sea","Parish":null,"County":"Norfolk"},"geometry":{"type":"Point","coordinates":[1.7323088,52.5721202]}},{"type":"Feature","properties":{"fid":104,"Name":"Gunfleet Lighthouse","id":"LH104","Town":"Walton-on-the-Naze","Locality":"Walton-on-the-Naze","Parish":"Frinton and Walton CP","County":"Essex"},"geometry":{"type":"Point","coordinates":[1.3398814,51.7693923]}},{"type":"Feature","properties":{"fid":105,"Name":"Hale Head Lighthouse","id":"LH105","Town":"Hale (Halton)","Locality":"Hale","Parish":"Hale CP","County":"Cheshire"},"geometry":{"type":"Point","coordinates":[-2.7942635,53.3224206]}},{"type":"Feature","properties":{"fid":106,"Name":"Harwich High Lighthouse","id":"LH106","Town":"Harwich","Locality":"Bath Side","Parish":"Harwich CP","County":"Essex"},"geometry":{"type":"Point","coordinates":[1.2886274,51.9444546]}},{"type":"Feature","properties":{"fid":107,"Name":"Harwich Low Lighthouse","id":"LH107","Town":"Harwich","Locality":"Bath Side","Parish":"Harwich CP","County":"Essex"},"geometry":{"type":"Point","coordinates":[1.2909635,51.9434215]}},{"type":"Feature","properties":{"fid":108,"Name":"Hodbarrow Beacon","id":"LH108","Town":"Millom","Locality":"Millom","Parish":"Millom CP","County":"Cumbria"},"geometry":{"type":"Point","coordinates":[-3.2582599,54.1941209]}},{"type":"Feature","properties":{"fid":109,"Name":"Hodbarrow Haverigg Lighthouse","id":"LH109","Town":"Millom","Locality":"Millom","Parish":"Millom CP","County":"Cumbria"},"geometry":{"type":"Point","coordinates":[-3.2675113,54.1903664]}},{"type":"Feature","properties":{"fid":110,"Name":"Hoylake Lighthouse","id":"LH110","Town":"Hoylake","Locality":"Hoylake","Parish":null,"County":"Merseyside"},"geometry":{"type":"Point","coordinates":[-3.1826177,53.3920375]}},{"type":"Feature","properties":{"fid":111,"Name":"Old Hunstanton Lighthouse","id":"LH111","Town":"Hunstanton","Locality":"Old Hunstanton","Parish":"Hunstanton CP","County":"Norfolk"},"geometry":{"type":"Point","coordinates":[0.4936294,52.9496675]}},{"type":"Feature","properties":{"fid":112,"Name":"Killingholme North Low Lighthouse","id":"LH112","Town":"North Killingholme","Locality":"Immingham","Parish":"South Killingholme CP","County":"Lincolnshire"},"geometry":{"type":"Point","coordinates":[-0.2196802,53.6493348]}},{"type":"Feature","properties":{"fid":113,"Name":"Leasowe Lighthouse","id":"LH113","Town":"Wallasey","Locality":"Moreton","Parish":null,"County":"Merseyside"},"geometry":{"type":"Point","coordinates":[-3.1257594,53.4131667]}},{"type":"Feature","properties":{"fid":114,"Name":"Lundy Old Light","id":"LH114","Town":"Hartland","Locality":"Titchberry","Parish":null,"County":"Devon"},"geometry":{"type":"Point","coordinates":[-4.6733599,51.1672086]}},{"type":"Feature","properties":{"fid":115,"Name":"Maryport Old Lighthouse","id":"LH115","Town":"Maryport","Locality":"Glasson","Parish":"Maryport CP","County":"Cumbria"},"geometry":{"type":"Point","coordinates":[-3.5076337,54.7169177]}},{"type":"Feature","properties":{"fid":116,"Name":"New Brighton Lighthouse","id":"LH116","Town":"Wallasey","Locality":"New Brighton","Parish":null,"County":"Merseyside"},"geometry":{"type":"Point","coordinates":[-3.0423027,53.444325]}},{"type":"Feature","properties":{"fid":117,"Name":"Orfordness Lighthouse","id":"LH117","Town":"Orford","Locality":"Orford","Parish":"Orford CP","County":"Suffolk"},"geometry":{"type":"Point","coordinates":[1.5743247,52.083911]}},{"type":"Feature","properties":{"fid":118,"Name":"Pakefield Lighthouse","id":"LH118","Town":"Lowestoft","Locality":"Pakefield","Parish":"Gisleham CP","County":"Suffolk"},"geometry":{"type":"Point","coordinates":[1.7292685,52.43705]}},{"type":"Feature","properties":{"fid":119,"Name":"Paull Lighthouse","id":"LH119","Town":"Paull","Locality":"Paull","Parish":"Paull CP","County":"East Riding of Yorkshire"},"geometry":{"type":"Point","coordinates":[-0.2344649,53.7189566]}},{"type":"Feature","properties":{"fid":120,"Name":"Portland Bill High Light","id":"LH120","Town":"Southwell (Dorset)","Locality":"Portland Bill","Parish":"Portland CP","County":"Dorset"},"geometry":{"type":"Point","coordinates":[-2.4564089,50.5223033]}},{"type":"Feature","properties":{"fid":121,"Name":"Portland Bill Low Light","id":"LH121","Town":"Southwell (Dorset)","Locality":"Portland Bill","Parish":"Portland CP","County":"Dorset"},"geometry":{"type":"Point","coordinates":[-2.4511099,50.5196748]}},{"type":"Feature","properties":{"fid":122,"Name":"Royal Sovereign Lighthouse","id":"LH122","Town":"Bexhill-on-Sea","Locality":"Normans' Bay","Parish":"Bexhill-on-Sea CP","County":"East Sussex"},"geometry":{"type":"Point","coordinates":[0.4349643,50.723818]}},{"type":"Feature","properties":{"fid":123,"Name":"St. Agnes Lighthouse","id":"LH123","Town":"Hugh Town","Locality":"St Agnes","Parish":"St. Agnes CP","County":"Cornwall"},"geometry":{"type":"Point","coordinates":[-6.3454943,49.8925112]}},{"type":"Feature","properties":{"fid":124,"Name":"St Catherine's Oratory","id":"LH124","Town":"Niton","Locality":"Blackgang","Parish":"Chale CP","County":"Isle of Wight"},"geometry":{"type":"Point","coordinates":[-1.3039539,50.5931464]}},{"type":"Feature","properties":{"fid":125,"Name":"St. Mary's Lighthouse","id":"LH125","Town":"Whitley Bay","Locality":"Whitley Bay","Parish":null,"County":"Tyne & Wear"},"geometry":{"type":"Point","coordinates":[-1.4494608,55.0716708]}},{"type":"Feature","properties":{"fid":126,"Name":"Seaton Carew High Light","id":"LH126","Town":"Hartlepool","Locality":"Middleton","Parish":null,"County":"Durham"},"geometry":{"type":"Point","coordinates":[-1.202171,54.6915411]}},{"type":"Feature","properties":{"fid":127,"Name":"Seaton Carew Low Light","id":"LH127","Town":"Hartlepool","Locality":"Seaton Carew","Parish":null,"County":"Durham"},"geometry":{"type":"Point","coordinates":[-1.1893853,54.667301]}},{"type":"Feature","properties":{"fid":128,"Name":"Smeaton's Tower","id":"LH128","Town":"Plymouth","Locality":"Plymouth","Parish":null,"County":"Devon"},"geometry":{"type":"Point","coordinates":[-4.1418834,50.364343]}},{"type":"Feature","properties":{"fid":129,"Name":"Souter Lighthouse","id":"LH129","Town":"Whitburn (South Tyneside)","Locality":"Whitburn","Parish":null,"County":"Tyne & Wear"},"geometry":{"type":"Point","coordinates":[-1.3641064,54.9705077]}},{"type":"Feature","properties":{"fid":130,"Name":"South Foreland Lower Lighthouse","id":"LH130","Town":"St Margaret's at Cliffe","Locality":"St Margaret's at Cliffe","Parish":"St. Margaret's At Cliffe CP","County":"Kent"},"geometry":{"type":"Point","coordinates":[1.3760531,51.1409622]}},{"type":"Feature","properties":{"fid":131,"Name":"Southsea Castle Lighthouse","id":"LH131","Town":"Portsmouth","Locality":"Southsea","Parish":null,"County":"Hampshire"},"geometry":{"type":"Point","coordinates":[-1.0890127,50.7783189]}},{"type":"Feature","properties":{"fid":132,"Name":"Spurn Lighthouse","id":"LH132","Town":"Easington (East Riding of Yorkshire)","Locality":"Kilnsea","Parish":"Easington CP","County":"East Riding of Yorkshire"},"geometry":{"type":"Point","coordinates":[0.1183265,53.5789886]}},{"type":"Feature","properties":{"fid":133,"Name":"Old Spurn Low Lighthouse","id":"LH133","Town":"Easington (East Riding of Yorkshire)","Locality":"Kilnsea","Parish":"Easington CP","County":"East Riding of Yorkshire"},"geometry":{"type":"Point","coordinates":[0.1159723,53.5789948]}},{"type":"Feature","properties":{"fid":134,"Name":"Winterton Old Lighthouse","id":"LH134","Town":"Hemsby","Locality":"Winterton-on-Sea","Parish":"Winterton-on-Sea CP","County":"Norfolk"},"geometry":{"type":"Point","coordinates":[1.6952715,52.7129505]}},{"type":"Feature","properties":{"fid":135,"Name":"Withernsea Lighthouse","id":"LH135","Town":"Withernsea","Locality":"Withernsea","Parish":"Withernsea CP","County":"East Riding of Yorkshire"},"geometry":{"type":"Point","coordinates":[0.0287626,53.7309256]}},{"type":"Feature","properties":{"fid":136,"Name":"Wyre Light","id":"LH136","Town":"Fleetwood","Locality":"Fleetwood","Parish":"Fleetwood CP","County":"Lancashire"},"geometry":{"type":"Point","coordinates":[-3.0366356,53.9384092]}},{"type":"Feature","properties":{"fid":137,"Name":"Sutton Bridge East Bank Lighthouse","id":"LH137","Town":"Sutton Bridge","Locality":"Guy's Head","Parish":"Sutton Bridge CP","County":"Lincolnshire"},"geometry":{"type":"Point","coordinates":[0.2136591,52.8083478]}},{"type":"Feature","properties":{"fid":138,"Name":"Sutton Bridge West Bank Lighthouse","id":"LH138","Town":"Sutton Bridge","Locality":"Guy's Head","Parish":"Sutton Bridge CP","County":"Lincolnshire"},"geometry":{"type":"Point","coordinates":[0.2108533,52.8086461]}},{"type":"Feature","properties":{"fid":140,"Name":"Ailsa Craig Lighthouse","id":"LH139","Town":"Ballantrae","Locality":"Ballantrae","Parish":null,"County":"Ayrshire and Arran"},"geometry":{"type":"Point","coordinates":[-5.1084397,55.2519185]}},{"type":"Feature","properties":{"fid":141,"Name":"Ardnamurchan Lighthouse","id":"LH140","Town":"Dervaig","Locality":"Portuairk","Parish":null,"County":"Inverness"},"geometry":{"type":"Point","coordinates":[-6.2259345,56.7270992]}},{"type":"Feature","properties":{"fid":142,"Name":"Auskerry Lighthouse","id":"LH141","Town":"Tankerness","Locality":"Dishes","Parish":null,"County":"Orkney"},"geometry":{"type":"Point","coordinates":[-2.5722346,59.025835]}},{"type":"Feature","properties":{"fid":143,"Name":"Barns Ness Lighthouse","id":"LH142","Town":"Broxburn (East Lothian)","Locality":"Skateraw","Parish":null,"County":"East Lothian"},"geometry":{"type":"Point","coordinates":[-2.4454259,55.987248]}},{"type":"Feature","properties":{"fid":144,"Name":"Barra Head Lighthouse","id":"LH143","Town":"Bàgh a'Chaisteil","Locality":"Vatersay","Parish":null,"County":"Western Isles"},"geometry":{"type":"Point","coordinates":[-7.6534417,56.78544]}},{"type":"Feature","properties":{"fid":145,"Name":"Bass Rock Lighthouse","id":"LH144","Town":"Whitekirk","Locality":"Whitekirk","Parish":null,"County":"East Lothian"},"geometry":{"type":"Point","coordinates":[-2.6409376,56.0765939]}},{"type":"Feature","properties":{"fid":146,"Name":"Bell Rock Lighthouse","id":"LH145","Town":"Arbroath","Locality":"Auchmithie","Parish":null,"County":"Angus"},"geometry":{"type":"Point","coordinates":[-2.3872881,56.434205]}},{"type":"Feature","properties":{"fid":147,"Name":"Bressay Lighthouse","id":"LH146","Town":"Lerwick","Locality":"Kirkabister","Parish":null,"County":"Shetland"},"geometry":{"type":"Point","coordinates":[-1.1214616,60.119991]}},{"type":"Feature","properties":{"fid":148,"Name":"Brough of Birsay Lighthouse","id":"LH147","Town":"Dounby","Locality":"Northside","Parish":null,"County":"Orkney"},"geometry":{"type":"Point","coordinates":[-3.3391603,59.13684]}},{"type":"Feature","properties":{"fid":149,"Name":"Buchan Ness Lighthouse","id":"LH148","Town":"Boddam","Locality":"Boddam","Parish":null,"County":"Aberdeenshire"},"geometry":{"type":"Point","coordinates":[-1.7745585,57.4704428]}},{"type":"Feature","properties":{"fid":150,"Name":"Butt of Lewis Lighthouse","id":"LH149","Town":"Eòropaidh","Locality":"Eòropaidh","Parish":null,"County":"Western Isles"},"geometry":{"type":"Point","coordinates":[-6.2609339,58.5155842]}},{"type":"Feature","properties":{"fid":151,"Name":"Cantick Head Lighthouse","id":"LH150","Town":"Hackness","Locality":"Hackness","Parish":null,"County":"Orkney"},"geometry":{"type":"Point","coordinates":[-3.131304,58.7871127]}},{"type":"Feature","properties":{"fid":152,"Name":"Cape Wrath Lighthouse","id":"LH151","Town":"Ullapool","Locality":"Oldshoremore","Parish":null,"County":"Sutherland"},"geometry":{"type":"Point","coordinates":[-4.9991531,58.6254694]}},{"type":"Feature","properties":{"fid":153,"Name":"Chanonry Lighthouse","id":"LH152","Town":"Fortrose","Locality":"Rosemarkie","Parish":null,"County":"Ross and Cromarty"},"geometry":{"type":"Point","coordinates":[-4.0927202,57.5740347]}},{"type":"Feature","properties":{"fid":154,"Name":"Cloch Lighthouse","id":"LH153","Town":"Gourock","Locality":"Levan","Parish":null,"County":"Renfrewshire"},"geometry":{"type":"Point","coordinates":[-4.8787413,55.9423141]}},{"type":"Feature","properties":{"fid":155,"Name":"Copinsay Lighthouse","id":"LH154","Town":"Tankerness","Locality":"Steinflett","Parish":null,"County":"Orkney"},"geometry":{"type":"Point","coordinates":[-2.6720258,58.8964867]}},{"type":"Feature","properties":{"fid":156,"Name":"Corran Point Lighthouse","id":"LH155","Town":"North Ballachulish","Locality":"Corran","Parish":null,"County":"Inverness"},"geometry":{"type":"Point","coordinates":[-5.2423234,56.7208609]}},{"type":"Feature","properties":{"fid":157,"Name":"Corsewall Lighthouse","id":"LH156","Town":"Stranraer","Locality":"Ervie","Parish":null,"County":"Wigtown"},"geometry":{"type":"Point","coordinates":[-5.1594916,55.0070751]}},{"type":"Feature","properties":{"fid":158,"Name":"Covesea Skerries Lighthouse","id":"LH157","Town":"Lossiemouth","Locality":"Covesea Village","Parish":null,"County":"Moray"},"geometry":{"type":"Point","coordinates":[-3.3386114,57.7240542]}},{"type":"Feature","properties":{"fid":159,"Name":"Crammag Head Lighthouse","id":"LH158","Town":"Drummore","Locality":"Clanyard","Parish":null,"County":"Wigtown"},"geometry":{"type":"Point","coordinates":[-4.9647913,54.6651604]}},{"type":"Feature","properties":{"fid":160,"Name":"Cromarty Lighthouse","id":"LH159","Town":"Cromarty","Locality":"Cromarty","Parish":null,"County":"Ross and Cromarty"},"geometry":{"type":"Point","coordinates":[-4.0364595,57.6830606]}},{"type":"Feature","properties":{"fid":161,"Name":"Davaar Lighthouse","id":"LH160","Town":"Ceann Loch Chille Chiarain","Locality":"Glenramskill","Parish":null,"County":"Argyll and Bute"},"geometry":{"type":"Point","coordinates":[-5.5405253,55.4280789]}},{"type":"Feature","properties":{"fid":162,"Name":"Dubh Artach Lighthouse","id":"LH161","Town":"Crossapol","Locality":"Baile Mòr","Parish":null,"County":"Argyll and Bute"},"geometry":{"type":"Point","coordinates":[-6.6344757,56.1322435]}},{"type":"Feature","properties":{"fid":163,"Name":"Duncansby Head Lighthouse","id":"LH162","Town":"Wick (Highland)","Locality":"Duncansby","Parish":null,"County":"Caithness"},"geometry":{"type":"Point","coordinates":[-3.0252996,58.6439385]}},{"type":"Feature","properties":{"fid":164,"Name":"Dunnet Head Lighthouse","id":"LH163","Town":"Dunnet","Locality":"Easter Head","Parish":null,"County":"Caithness"},"geometry":{"type":"Point","coordinates":[-3.3766293,58.6714782]}},{"type":"Feature","properties":{"fid":165,"Name":"Eilean Glas Lighthouse","id":"LH164","Town":"An Tairbeart (Na h-Eileanan an Iar)","Locality":"Carnach","Parish":null,"County":"Western Isles"},"geometry":{"type":"Point","coordinates":[-6.6419142,57.8568896]}},{"type":"Feature","properties":{"fid":166,"Name":"Elie Ness Lighthouse","id":"LH165","Town":"Elie","Locality":"Elie","Parish":null,"County":"Fife"},"geometry":{"type":"Point","coordinates":[-2.8127451,56.1839739]}},{"type":"Feature","properties":{"fid":167,"Name":"Esha Ness Lighthouse","id":"LH166","Town":"Brae","Locality":"West Heogaland","Parish":null,"County":"Shetland"},"geometry":{"type":"Point","coordinates":[-1.6272565,60.4892947]}},{"type":"Feature","properties":{"fid":168,"Name":"Fair Isle North Lighthouse","id":"LH167","Town":"Scatness","Locality":"Scatness","Parish":null,"County":"Shetland"},"geometry":{"type":"Point","coordinates":[-1.6097822,59.5520876]}},{"type":"Feature","properties":{"fid":169,"Name":"Fair Isle South Lighthouse","id":"LH168","Town":"Scatness","Locality":"Scatness","Parish":null,"County":"Shetland"},"geometry":{"type":"Point","coordinates":[-1.6526217,59.5138871]}},{"type":"Feature","properties":{"fid":170,"Name":"Fidra Lighthouse","id":"LH169","Town":"Archerfield the Village","Locality":"Archerfield the Village","Parish":null,"County":"East Lothian"},"geometry":{"type":"Point","coordinates":[-2.7851142,56.0732113]}},{"type":"Feature","properties":{"fid":171,"Name":"Fife Ness Lighthouse","id":"LH170","Town":"Crail","Locality":"Crail","Parish":null,"County":"Fife"},"geometry":{"type":"Point","coordinates":[-2.5859191,56.2788309]}},{"type":"Feature","properties":{"fid":172,"Name":"Firths Voe Lighthouse","id":"LH171","Town":"Graven","Locality":"Mossbank","Parish":null,"County":"Shetland"},"geometry":{"type":"Point","coordinates":[-1.1769927,60.453737]}},{"type":"Feature","properties":{"fid":173,"Name":"Flannan Isles Lighthouse","id":"LH172","Town":"Uachdar","Locality":"Islibhig","Parish":null,"County":"Western Isles"},"geometry":{"type":"Point","coordinates":[-7.588268,58.288114]}},{"type":"Feature","properties":{"fid":174,"Name":"Foula Lighthouse","id":"LH173","Town":"Hamnavoe","Locality":"Da Hametoon","Parish":null,"County":"Shetland"},"geometry":{"type":"Point","coordinates":[-2.0639545,60.1123953]}},{"type":"Feature","properties":{"fid":175,"Name":"Girdle Ness Lighthouse","id":"LH174","Town":"Aberdeen","Locality":"Footdee","Parish":null,"County":"City of Aberdeen"},"geometry":{"type":"Point","coordinates":[-2.0485574,57.1390132]}},{"type":"Feature","properties":{"fid":176,"Name":"Holburn Head Lighthouse","id":"LH175","Town":"Scrabster","Locality":"Scrabster","Parish":null,"County":"Caithness"},"geometry":{"type":"Point","coordinates":[-3.5394229,58.6146119]}},{"type":"Feature","properties":{"fid":177,"Name":"Holy Isle Inner Lighthouse","id":"LH176","Town":"Whiting Bay","Locality":"Kingscross","Parish":null,"County":"Ayrshire and Arran"},"geometry":{"type":"Point","coordinates":[-5.0701655,55.5122382]}},{"type":"Feature","properties":{"fid":178,"Name":"Holy Isle Outer Lighthouse","id":"LH177","Town":"Whiting Bay","Locality":"Kingscross","Parish":null,"County":"Ayrshire and Arran"},"geometry":{"type":"Point","coordinates":[-5.0608329,55.5173343]}},{"type":"Feature","properties":{"fid":179,"Name":"Hoxa Head Lighthouse","id":"LH178","Town":"St Margaret's Hope","Locality":"Hoxa","Parish":null,"County":"Orkney"},"geometry":{"type":"Point","coordinates":[-3.034691,58.8218639]}},{"type":"Feature","properties":{"fid":180,"Name":"Hoy High Lighthouse","id":"LH179","Town":"Stromness","Locality":"Stromness","Parish":null,"County":"Orkney"},"geometry":{"type":"Point","coordinates":[-3.2733043,58.9356758]}},{"type":"Feature","properties":{"fid":181,"Name":"Hoy Low Lighthouse","id":"LH180","Town":"Stromness","Locality":"Stromness","Parish":null,"County":"Orkney"},"geometry":{"type":"Point","coordinates":[-3.3100682,58.9403913]}},{"type":"Feature","properties":{"fid":182,"Name":"Hyskeir Lighthouse","id":"LH181","Town":"Caolas","Locality":"A' Chill","Parish":null,"County":"Inverness"},"geometry":{"type":"Point","coordinates":[-6.680388,56.9694068]}},{"type":"Feature","properties":{"fid":183,"Name":"Inchkeith Lighthouse","id":"LH182","Town":"Kinghorn","Locality":"Kinghorn","Parish":null,"County":"Fife"},"geometry":{"type":"Point","coordinates":[-3.1361271,56.0335097]}},{"type":"Feature","properties":{"fid":184,"Name":"Isle of May Lighthouse","id":"LH183","Town":"Crail","Locality":"Crail","Parish":null,"County":"Fife"},"geometry":{"type":"Point","coordinates":[-2.5574583,56.1856564]}},{"type":"Feature","properties":{"fid":185,"Name":"Killantringan Lighthouse","id":"LH184","Town":"Portpatrick","Locality":"Portpatrick","Parish":null,"County":"Wigtown"},"geometry":{"type":"Point","coordinates":[-5.1469571,54.8618886]}},{"type":"Feature","properties":{"fid":186,"Name":"New Kinnaird Head Lighthouse","id":"LH185","Town":"Fraserburgh","Locality":"Fraserburgh","Parish":null,"County":"Aberdeenshire"},"geometry":{"type":"Point","coordinates":[-2.0043663,57.6979115]}},{"type":"Feature","properties":{"fid":187,"Name":"Old Kinnaird Head Lighthouse","id":"LH186","Town":"Fraserburgh","Locality":"Fraserburgh","Parish":null,"County":"Aberdeenshire"},"geometry":{"type":"Point","coordinates":[-2.0038853,57.6975759]}},{"type":"Feature","properties":{"fid":188,"Name":"Lady Isle Lighthouse","id":"LH187","Town":"Troon (South Ayrshire)","Locality":"Troon","Parish":null,"County":"Ayrshire and Arran"},"geometry":{"type":"Point","coordinates":[-4.7340263,55.5271243]}},{"type":"Feature","properties":{"fid":189,"Name":"Lismore Lighthouse","id":"LH188","Town":"Oban","Locality":"Gorten","Parish":null,"County":"Argyll and Bute"},"geometry":{"type":"Point","coordinates":[-5.6074201,56.4555558]}},{"type":"Feature","properties":{"fid":190,"Name":"Little Cumbrae Old Lighthouse","id":"LH189","Town":"Millport","Locality":"Millport","Parish":null,"County":"Ayrshire and Arran"},"geometry":{"type":"Point","coordinates":[-4.9580284,55.7209131]}},{"type":"Feature","properties":{"fid":191,"Name":"Cumbrae Lighthouse","id":"LH190","Town":"Millport","Locality":"Millport","Parish":null,"County":"Ayrshire and Arran"},"geometry":{"type":"Point","coordinates":[-4.9669749,55.7211249]}},{"type":"Feature","properties":{"fid":192,"Name":"Little Ross Lighthouse","id":"LH191","Town":"Kirkcudbright","Locality":"Balmae","Parish":null,"County":"The Stewartry of Kirkcudbright"},"geometry":{"type":"Point","coordinates":[-4.0848852,54.7657545]}},{"type":"Feature","properties":{"fid":193,"Name":"Old Monach Lighthouse","id":"LH192","Town":"Uachdar","Locality":"Hogha Gearraidh","Parish":null,"County":"Western Isles"},"geometry":{"type":"Point","coordinates":[-7.694633,57.5258612]}},{"type":"Feature","properties":{"fid":194,"Name":"Monach New Lighthouse","id":"LH193","Town":"Uachdar","Locality":"Hogha Gearraidh","Parish":null,"County":"Western Isles"},"geometry":{"type":"Point","coordinates":[-7.6950456,57.5259102]}},{"type":"Feature","properties":{"fid":195,"Name":"Muckle Flugga Lighthouse","id":"LH194","Town":"Symbister","Locality":"Burrafirth","Parish":null,"County":"Shetland"},"geometry":{"type":"Point","coordinates":[-0.8855788,60.8553602]}},{"type":"Feature","properties":{"fid":196,"Name":"Mull of Galloway Lighthouse","id":"LH195","Town":"Drummore","Locality":"Mull of Galloway","Parish":null,"County":"Wigtown"},"geometry":{"type":"Point","coordinates":[-4.857124,54.6349512]}},{"type":"Feature","properties":{"fid":197,"Name":"Mull of Kintyre Lighthouse","id":"LH196","Town":"West Darlochan","Locality":"Machrihanish","Parish":null,"County":"Argyll and Bute"},"geometry":{"type":"Point","coordinates":[-5.803287,55.310417]}},{"type":"Feature","properties":{"fid":198,"Name":"Neist Point Lighthouse","id":"LH197","Town":"An Tairbeart (Na h-Eileanan an Iar)","Locality":"Bhatairsteinn","Parish":null,"County":"Ross and Cromarty"},"geometry":{"type":"Point","coordinates":[-6.7882348,57.4233876]}},{"type":"Feature","properties":{"fid":199,"Name":"North Rona Lighthouse","id":"LH198","Town":"Eòropaidh","Locality":"Port of Ness","Parish":null,"County":"Western Isles"},"geometry":{"type":"Point","coordinates":[-5.8148198,59.1212662]}},{"type":"Feature","properties":{"fid":200,"Name":"North Ronaldsay Lighthouse","id":"LH199","Town":"Pierowall","Locality":"Easting","Parish":null,"County":"Orkney"},"geometry":{"type":"Point","coordinates":[-2.3813314,59.3896525]}},{"type":"Feature","properties":{"fid":201,"Name":"Dennis Head Old Beacon","id":"LH200","Town":"Pierowall","Locality":"Easting","Parish":null,"County":"Orkney"},"geometry":{"type":"Point","coordinates":[-2.371215,59.3842667]}},{"type":"Feature","properties":{"fid":202,"Name":"Noss Head Lighthouse","id":"LH201","Town":"Wick (Highland)","Locality":"Staxigoe","Parish":null,"County":"Caithness"},"geometry":{"type":"Point","coordinates":[-3.0510005,58.4790341]}},{"type":"Feature","properties":{"fid":203,"Name":"Noup Head Lighthouse","id":"LH202","Town":"Pierowall","Locality":"Pierowall","Parish":null,"County":"Orkney"},"geometry":{"type":"Point","coordinates":[-3.0701209,59.3310685]}},{"type":"Feature","properties":{"fid":204,"Name":"Ornsay Lighthouse","id":"LH203","Town":"Eilean Iarmain","Locality":"Eilean Iarmain","Parish":null,"County":"Ross and Cromarty"},"geometry":{"type":"Point","coordinates":[-5.7810241,57.1433947]}},{"type":"Feature","properties":{"fid":205,"Name":"Bound Skerry Lighthouse","id":"LH204","Town":"Symbister","Locality":"Bruray","Parish":null,"County":"Shetland"},"geometry":{"type":"Point","coordinates":[-0.7277727,60.4244502]}},{"type":"Feature","properties":{"fid":206,"Name":"Oxcars Lighthouse","id":"LH205","Town":"Aberdour","Locality":"Old Battery","Parish":null,"County":"City of Edinburgh"},"geometry":{"type":"Point","coordinates":[-3.2803292,56.0225173]}},{"type":"Feature","properties":{"fid":207,"Name":"Pentland Skerry Lighthouse","id":"LH206","Town":"St Margaret's Hope","Locality":"Liddel","Parish":null,"County":"Orkney"},"geometry":{"type":"Point","coordinates":[-2.9247297,58.6901597]}},{"type":"Feature","properties":{"fid":208,"Name":"Pentland Skerries Lighthouse","id":"LH207","Town":"St Margaret's Hope","Locality":"Liddel","Parish":null,"County":"Orkney"},"geometry":{"type":"Point","coordinates":[-2.9246123,58.6898598]}},{"type":"Feature","properties":{"fid":209,"Name":"Pladda Lighthouse","id":"LH208","Town":"Whiting Bay","Locality":"Drimlabarra","Parish":null,"County":"Ayrshire and Arran"},"geometry":{"type":"Point","coordinates":[-5.1184379,55.4251565]}},{"type":"Feature","properties":{"fid":210,"Name":"Fethaland Lighthouse","id":"LH209","Town":"Graven","Locality":"Isbister","Parish":null,"County":"Shetland"},"geometry":{"type":"Point","coordinates":[-1.3114666,60.6342034]}},{"type":"Feature","properties":{"fid":211,"Name":"Point of Sleat Lighthouse","id":"LH210","Town":"Malaig","Locality":"Point of Sleat","Parish":null,"County":"Ross and Cromarty"},"geometry":{"type":"Point","coordinates":[-6.0178429,57.0182756]}},{"type":"Feature","properties":{"fid":212,"Name":"Rattray Head Lighthouse","id":"LH211","Town":"St Fergus","Locality":"St Fergus","Parish":null,"County":"Aberdeenshire"},"geometry":{"type":"Point","coordinates":[-1.8164358,57.6101228]}},{"type":"Feature","properties":{"fid":213,"Name":"Rinns of Islay Lighthouse","id":"LH212","Town":"Bogh Mòr","Locality":"Bun Othan","Parish":null,"County":"Argyll and Bute"},"geometry":{"type":"Point","coordinates":[-6.5131581,55.6730485]}},{"type":"Feature","properties":{"fid":214,"Name":"Rona Lighthouse","id":"LH213","Town":"Gairloch","Locality":"Kalnakill","Parish":null,"County":"Ross and Cromarty"},"geometry":{"type":"Point","coordinates":[-5.9590585,57.5781008]}},{"type":"Feature","properties":{"fid":215,"Name":"Rose Ness Lighthouse","id":"LH214","Town":"Burray Village","Locality":"Cornquoy","Parish":null,"County":"Orkney"},"geometry":{"type":"Point","coordinates":[-2.832234,58.8727189]}},{"type":"Feature","properties":{"fid":216,"Name":"Rua Reidh Lighthouse","id":"LH215","Town":"Gairloch","Locality":"Melvaig","Parish":null,"County":"Ross and Cromarty"},"geometry":{"type":"Point","coordinates":[-5.8117819,57.858764]}},{"type":"Feature","properties":{"fid":217,"Name":"Rubha nan Gall Lighthouse","id":"LH216","Town":"Tobermory","Locality":"Tobermory","Parish":null,"County":"Argyll and Bute"},"geometry":{"type":"Point","coordinates":[-6.0662345,56.638674]}},{"type":"Feature","properties":{"fid":218,"Name":"Rhuvaal Lighthouse","id":"LH217","Town":"Bogh Mòr","Locality":"Bunnahabhain","Parish":null,"County":"Argyll and Bute"},"geometry":{"type":"Point","coordinates":[-6.1236748,55.9362957]}},{"type":"Feature","properties":{"fid":219,"Name":"Sanda Island Lighthouse","id":"LH218","Town":"Ceann Loch Chille Chiarain","Locality":"Southend","Parish":null,"County":"Argyll and Bute"},"geometry":{"type":"Point","coordinates":[-5.5828211,55.2749538]}},{"type":"Feature","properties":{"fid":220,"Name":"Scarinish Lighthouse","id":"LH219","Town":"Crossapol","Locality":"Scarinish","Parish":null,"County":"Argyll and Bute"},"geometry":{"type":"Point","coordinates":[-6.8043312,56.5002345]}},{"type":"Feature","properties":{"fid":221,"Name":"Scurdie Ness Lighthouse","id":"LH220","Town":"Montrose","Locality":"Usan","Parish":null,"County":"Angus"},"geometry":{"type":"Point","coordinates":[-2.4372332,56.7017629]}},{"type":"Feature","properties":{"fid":222,"Name":"Skerryvore Lighthouse","id":"LH221","Town":"Crossapol","Locality":"Sandaig","Parish":null,"County":"Argyll and Bute"},"geometry":{"type":"Point","coordinates":[-7.1135275,56.3231963]}},{"type":"Feature","properties":{"fid":223,"Name":"Southerness Lighthouse","id":"LH222","Town":"Southerness","Locality":"Southerness","Parish":null,"County":"Dumfries"},"geometry":{"type":"Point","coordinates":[-3.5950037,54.8728246]}},{"type":"Feature","properties":{"fid":224,"Name":"St. Abbs Lighthouse","id":"LH223","Town":"Coldingham","Locality":"St Abbs","Parish":null,"County":"Berwickshire"},"geometry":{"type":"Point","coordinates":[-2.1387591,55.9162205]}},{"type":"Feature","properties":{"fid":225,"Name":"Start Point Lighthouse","id":"LH224","Town":"Tankerness","Locality":"Northwall","Parish":null,"County":"Orkney"},"geometry":{"type":"Point","coordinates":[-2.3758875,59.2774254]}},{"type":"Feature","properties":{"fid":226,"Name":"Stoer Head Lighthouse","id":"LH225","Town":"Ullapool","Locality":"Raffin","Parish":null,"County":"Sutherland"},"geometry":{"type":"Point","coordinates":[-5.4027057,58.2399983]}},{"type":"Feature","properties":{"fid":227,"Name":"Strathy Point Lighthouse","id":"LH226","Town":"Portskerra","Locality":"Totegan","Parish":null,"County":"Sutherland"},"geometry":{"type":"Point","coordinates":[-4.0186247,58.5988764]}},{"type":"Feature","properties":{"fid":228,"Name":"Stroma Lighthouse","id":"LH227","Town":"Hackness","Locality":"Huna","Parish":null,"County":"Caithness"},"geometry":{"type":"Point","coordinates":[-3.1167931,58.695878]}},{"type":"Feature","properties":{"fid":229,"Name":"Sule Skerry Lighthouse","id":"LH228","Town":"Portskerra","Locality":"Portvasgo","Parish":null,"County":"Orkney"},"geometry":{"type":"Point","coordinates":[-4.407335,59.0847022]}},{"type":"Feature","properties":{"fid":230,"Name":"Sumburgh Head Lighthouse","id":"LH229","Town":"Scatness","Locality":"Grutness","Parish":null,"County":"Shetland"},"geometry":{"type":"Point","coordinates":[-1.2748736,59.8540868]}},{"type":"Feature","properties":{"fid":231,"Name":"Tarbat Ness Lighthouse","id":"LH230","Town":"Portmahomack","Locality":"Rockfield","Parish":null,"County":"Ross and Cromarty"},"geometry":{"type":"Point","coordinates":[-3.7765827,57.8650597]}},{"type":"Feature","properties":{"fid":232,"Name":"Trumpan Head Lighthouse","id":"LH231","Town":"Pabail Uarach","Locality":"Port Mholair","Parish":null,"County":"Western Isles"},"geometry":{"type":"Point","coordinates":[-6.1387636,58.2608677]}},{"type":"Feature","properties":{"fid":233,"Name":"Todhead Lighthouse","id":"LH232","Town":"Inverbervie","Locality":"Catterline","Parish":null,"County":"Kincardineshire"},"geometry":{"type":"Point","coordinates":[-2.215221,56.8837416]}},{"type":"Feature","properties":{"fid":234,"Name":"Tor Ness Lighthouse","id":"LH233","Town":"Dunnet","Locality":"Melsetter","Parish":null,"County":"Orkney"},"geometry":{"type":"Point","coordinates":[-3.2963414,58.7782884]}},{"type":"Feature","properties":{"fid":235,"Name":"Toward Point Lighthouse","id":"LH234","Town":"Toward","Locality":"Toward","Parish":null,"County":"Argyll and Bute"},"geometry":{"type":"Point","coordinates":[-4.9797003,55.862073]}},{"type":"Feature","properties":{"fid":236,"Name":"Rubh' an Eun Lighthouse","id":"LH235","Town":"Millport","Locality":"Kilchattan Bay","Parish":null,"County":"Argyll and Bute"},"geometry":{"type":"Point","coordinates":[-5.0038958,55.7299933]}},{"type":"Feature","properties":{"fid":237,"Name":"Turnberry Lighthouse","id":"LH236","Town":"Maidens","Locality":"Turnberry","Parish":null,"County":"Ayrshire and Arran"},"geometry":{"type":"Point","coordinates":[-4.8445358,55.3258908]}},{"type":"Feature","properties":{"fid":238,"Name":"Ushenish Lighthouse","id":"LH237","Town":"Uachdar","Locality":"Loch Sgioport","Parish":null,"County":"Western Isles"},"geometry":{"type":"Point","coordinates":[-7.1927853,57.2983843]}},{"type":"Feature","properties":{"fid":239,"Name":"Waternish Point Lighthouse","id":"LH238","Town":"An Tairbeart (Na h-Eileanan an Iar)","Locality":"Trumpan","Parish":null,"County":"Ross and Cromarty"},"geometry":{"type":"Point","coordinates":[-6.6340943,57.6076727]}},{"type":"Feature","properties":{"fid":240,"Name":"Weavers Point Lighthouse","id":"LH239","Town":"Uachdar","Locality":"Bàgh a' Chàise","Parish":null,"County":"Western Isles"},"geometry":{"type":"Point","coordinates":[-7.0998349,57.6081925]}},{"type":"Feature","properties":{"fid":241,"Name":"Trwyn Du Lighthouse","id":"LH240","Town":"Llangoed","Locality":"Caim","Parish":"Llangoed Community","County":"Gwynedd"},"geometry":{"type":"Point","coordinates":[-4.0406582,53.3129488]}},{"type":"Feature","properties":{"fid":242,"Name":"Point Lynas Lighthouse","id":"LH241","Town":"Amlwch","Locality":"Pengorffwysfa","Parish":"Llaneilian Community","County":"Gwynedd"},"geometry":{"type":"Point","coordinates":[-4.2892844,53.4162188]}},{"type":"Feature","properties":{"fid":243,"Name":"Skerries Lighthouse","id":"LH242","Town":"Caergybi","Locality":"Porth Swtan","Parish":"Cylch-y-Garn Community","County":"Gwynedd"},"geometry":{"type":"Point","coordinates":[-4.6082585,53.4212016]}},{"type":"Feature","properties":{"fid":244,"Name":"Holyhead Breakwater Lighthouse","id":"LH243","Town":"Caergybi","Locality":"Caergybi","Parish":"Holyhead Community","County":"Gwynedd"},"geometry":{"type":"Point","coordinates":[-4.6192602,53.3309026]}},{"type":"Feature","properties":{"fid":245,"Name":"South Stack Lighthouse","id":"LH244","Town":"Caergybi","Locality":"Penrhosfeilw","Parish":"Trearddur Community","County":"Gwynedd"},"geometry":{"type":"Point","coordinates":[-4.6995551,53.30674]}},{"type":"Feature","properties":{"fid":246,"Name":"Twr Mawr Llanddwyn Lighthouse","id":"LH245","Town":"Malltraeth","Locality":"Hermon","Parish":"Rhosyr Community","County":"Gwynedd"},"geometry":{"type":"Point","coordinates":[-4.4154397,53.1352088]}},{"type":"Feature","properties":{"fid":247,"Name":"Bardsey Lighthouse","id":"LH246","Town":"Abersoch","Locality":"Bodermid","Parish":"Aberdaron Community","County":"Gwynedd"},"geometry":{"type":"Point","coordinates":[-4.7997137,52.749964]}},{"type":"Feature","properties":{"fid":248,"Name":"St Tudwal's Lighthouse","id":"LH247","Town":"Machroes","Locality":"Machroes","Parish":"Llanengan Community","County":"Gwynedd"},"geometry":{"type":"Point","coordinates":[-4.4711804,52.7985325]}},{"type":"Feature","properties":{"fid":249,"Name":"Strumble Head Lighthouse","id":"LH248","Town":"Wdig","Locality":"Trefasser","Parish":"Pencaer Community","County":"Dyfed"},"geometry":{"type":"Point","coordinates":[-5.0737712,52.0297545]}},{"type":"Feature","properties":{"fid":250,"Name":"South Bishop Lighthouse","id":"LH249","Town":"Tyddewi","Locality":"Rhosson","Parish":"St. David's Community","County":"Dyfed"},"geometry":{"type":"Point","coordinates":[-5.4118958,51.8526719]}},{"type":"Feature","properties":{"fid":251,"Name":"Smalls Lighthouse","id":"LH250","Town":"Tyddewi","Locality":"Rhosson","Parish":"Marloes and St. Brides Community","County":"Dyfed"},"geometry":{"type":"Point","coordinates":[-5.6698198,51.7211959]}},{"type":"Feature","properties":{"fid":252,"Name":"Skokholm Lighthouse","id":"LH251","Town":"Marloes","Locality":"Marloes","Parish":"Marloes and St. Brides Community","County":"Dyfed"},"geometry":{"type":"Point","coordinates":[-5.2869573,51.6938447]}},{"type":"Feature","properties":{"fid":253,"Name":"St. Ann's Head Lighthouse","id":"LH252","Town":"Marloes","Locality":"St Ann's Head","Parish":"Dale Community","County":"Dyfed"},"geometry":{"type":"Point","coordinates":[-5.1737314,51.6812876]}},{"type":"Feature","properties":{"fid":254,"Name":"Great Castle Head Light","id":"LH253","Town":"St Ishmael's","Locality":"Sandy Haven","Parish":"St. Ishmael's Community","County":"Dyfed"},"geometry":{"type":"Point","coordinates":[-5.1177942,51.7112317]}},{"type":"Feature","properties":{"fid":255,"Name":"Watwick Point Beacon","id":"LH254","Town":"St Ishmael's","Locality":"St Ann's Head","Parish":"Dale Community","County":"Dyfed"},"geometry":{"type":"Point","coordinates":[-5.1539721,51.6962394]}},{"type":"Feature","properties":{"fid":256,"Name":"West Blockhouse Point Beacons","id":"LH255","Town":"Marloes","Locality":"St Ann's Head","Parish":"Dale Community","County":"Dyfed"},"geometry":{"type":"Point","coordinates":[-5.1589706,51.6883109]}},{"type":"Feature","properties":{"fid":257,"Name":"Caldey Lighthouse","id":"LH256","Town":"Dinbych-y-Pysgod","Locality":"Dinbych-y-Pysgod","Parish":"Tenby Community","County":"Dyfed"},"geometry":{"type":"Point","coordinates":[-4.6842454,51.6315669]}},{"type":"Feature","properties":{"fid":258,"Name":"Saundersfoot Lighthouse","id":"LH257","Town":"Saundersfoot","Locality":"Saundersfoot","Parish":"Saundersfoot Community","County":"Dyfed"},"geometry":{"type":"Point","coordinates":[-4.6954255,51.7097896]}},{"type":"Feature","properties":{"fid":259,"Name":"Burry Port Lighthouse","id":"LH258","Town":"Porth Tywyn","Locality":"Burry Port","Parish":"Pembrey and Burry Port Town Community","County":"Dyfed"},"geometry":{"type":"Point","coordinates":[-4.2511661,51.6775156]}},{"type":"Feature","properties":{"fid":260,"Name":"Mumbles Lighthouse","id":"LH259","Town":"Abertawe","Locality":"Limeslade","Parish":"Mumbles Community","County":"West Glamorgan"},"geometry":{"type":"Point","coordinates":[-3.9710196,51.5668549]}},{"type":"Feature","properties":{"fid":261,"Name":"Porthcawl Lighthouse","id":"LH260","Town":"Porthcawl","Locality":"Porthcawl","Parish":"Porthcawl Community","County":"Mid Glamorgan"},"geometry":{"type":"Point","coordinates":[-3.6997138,51.4730878]}},{"type":"Feature","properties":{"fid":262,"Name":"Nash Point Lighthouse","id":"LH261","Town":"Sain Dunwyd","Locality":"Marcroes","Parish":"St. Donats Community","County":"South Glamorgan"},"geometry":{"type":"Point","coordinates":[-3.5521104,51.4008228]}},{"type":"Feature","properties":{"fid":263,"Name":"Flat Holm Lighthouse","id":"LH262","Town":"Penarth","Locality":"Lavernock","Parish":"Butetown Community","County":"South Glamorgan"},"geometry":{"type":"Point","coordinates":[-3.1187088,51.3756723]}},{"type":"Feature","properties":{"fid":264,"Name":"Barry Lighthouse","id":"LH263","Town":"Barry (Vale of Glamorgan)","Locality":"Barry Island","Parish":"Barry Community","County":"South Glamorgan"},"geometry":{"type":"Point","coordinates":[-3.2586159,51.3911527]}},{"type":"Feature","properties":{"fid":265,"Name":"Monkstone Lighthouse","id":"LH264","Town":"Caerdydd","Locality":"East Moors","Parish":null,"County":"Bristol"},"geometry":{"type":"Point","coordinates":[-3.1000544,51.4148198]}},{"type":"Feature","properties":{"fid":266,"Name":"East Usk Lighthouse","id":"LH265","Town":"Casnewydd","Locality":"Uskmouth","Parish":"Nash Community","County":"Gwent"},"geometry":{"type":"Point","coordinates":[-2.9669439,51.5400136]}},{"type":"Feature","properties":{"fid":267,"Name":"Charston Rock Lighthouse","id":"LH266","Town":"Porthsgiwed","Locality":"Black Rock","Parish":"Portskewett Community","County":"Gwent"},"geometry":{"type":"Point","coordinates":[-2.6945823,51.5891964]}},{"type":"Feature","properties":{"fid":268,"Name":"Point of Ayr Lighthouse","id":"LH267","Town":"Talacre","Locality":"Talacre","Parish":"Llanasa Community","County":"Clwyd"},"geometry":{"type":"Point","coordinates":[-3.3221733,53.3569791]}},{"type":"Feature","properties":{"fid":269,"Name":"Great Orme Lighthouse","id":"LH268","Town":"Llandudno","Locality":"Gogarth","Parish":"Llandudno Community","County":"Clwyd"},"geometry":{"type":"Point","coordinates":[-3.8688909,53.3423331]}},{"type":"Feature","properties":{"fid":270,"Name":"Amlwch Lighthouse","id":"LH269","Town":"Amlwch","Locality":"Amlwch Port","Parish":"Amlwch Community","County":"Gwynedd"},"geometry":{"type":"Point","coordinates":[-4.332969,53.4153515]}},{"type":"Feature","properties":{"fid":271,"Name":"Holyhead Mail Pier Lighthouse","id":"LH270","Town":"Caergybi","Locality":"Morawelon","Parish":"Holyhead Community","County":"Gwynedd"},"geometry":{"type":"Point","coordinates":[-4.6199698,53.3142245]}},{"type":"Feature","properties":{"fid":272,"Name":"Ynys Llanddwyn Lighthouse","id":"LH271","Town":"Malltraeth","Locality":"Hermon","Parish":"Rhosyr Community","County":"Gwynedd"},"geometry":{"type":"Point","coordinates":[-4.4129291,53.1343354]}},{"type":"Feature","properties":{"fid":273,"Name":"Whiteford Lighthouse","id":"LH272","Town":"Porth Tywyn","Locality":"Burry Port","Parish":"Llangennith, Llanmadoc and Cheriton Community","County":"West Glamorgan"},"geometry":{"type":"Point","coordinates":[-4.2511033,51.6525712]}},{"type":"Feature","properties":{"fid":274,"Name":"Old Nash Point Lighthouse","id":"LH273","Town":"Sain Dunwyd","Locality":"Marcroes","Parish":"St. Donats Community","County":"South Glamorgan"},"geometry":{"type":"Point","coordinates":[-3.5566163,51.4011763]}},{"type":"Feature","properties":{"fid":275,"Name":"West Usk Lighthouse","id":"LH274","Town":"Casnewydd","Locality":"St Brides","Parish":"Wentlooge Community","County":"Gwent"},"geometry":{"type":"Point","coordinates":[-2.9946877,51.540624]}},{"type":"Feature","properties":{"fid":276,"Name":"Calf of Man Lower Light","id":"LH275","Town":"Drummore","Locality":"Mull of Galloway","Parish":null,"County":"Wigtown"},"geometry":{"type":"Point","coordinates":[-4.8289546,54.0525358]}},{"type":"Feature","properties":{"fid":277,"Name":"Calf of Man Upper Light","id":"LH276","Town":"Drummore","Locality":"Mull of Galloway","Parish":null,"County":"Wigtown"},"geometry":{"type":"Point","coordinates":[-4.8280929,54.0540001]}},{"type":"Feature","properties":{"fid":278,"Name":"Castletown Harbour: Irish Quay","id":"LH277","Town":"Drummore","Locality":"Mull of Galloway","Parish":null,"County":"Wigtown"},"geometry":{"type":"Point","coordinates":[-4.6502001,54.0727821]}},{"type":"Feature","properties":{"fid":279,"Name":"Castletown Harbour: New Pier","id":"LH278","Town":"Drummore","Locality":"Mull of Galloway","Parish":null,"County":"Wigtown"},"geometry":{"type":"Point","coordinates":[-4.6492457,54.0721453]}},{"type":"Feature","properties":{"fid":280,"Name":"Chicken Rock Lighthouse","id":"LH279","Town":"Drummore","Locality":"Mull of Galloway","Parish":null,"County":"Wigtown"},"geometry":{"type":"Point","coordinates":[-4.837538,54.0378759]}},{"type":"Feature","properties":{"fid":281,"Name":"Douglas Head Lighthouse","id":"LH280","Town":"Isle of Whithorn","Locality":"Isle of Whithorn","Parish":null,"County":"Wigtown"},"geometry":{"type":"Point","coordinates":[-4.4657861,54.143326]}},{"type":"Feature","properties":{"fid":282,"Name":"Langness Lighthouse","id":"LH281","Town":"Tregele","Locality":"Mull of Galloway","Parish":null,"County":"Wigtown"},"geometry":{"type":"Point","coordinates":[-4.6250938,54.0548763]}},{"type":"Feature","properties":{"fid":283,"Name":"Maughold Lighthouse","id":"LH282","Town":"Isle of Whithorn","Locality":"Isle of Whithorn","Parish":null,"County":"Wigtown"},"geometry":{"type":"Point","coordinates":[-4.3095106,54.2957447]}},{"type":"Feature","properties":{"fid":284,"Name":"Point of Ayre Lighthouse","id":"LH283","Town":"Isle of Whithorn","Locality":"Isle of Whithorn","Parish":null,"County":"Wigtown"},"geometry":{"type":"Point","coordinates":[-4.3681127,54.4156679]}},{"type":"Feature","properties":{"fid":285,"Name":"Point of Ayre Winkie Lighthouse","id":"LH284","Town":"Isle of Whithorn","Locality":"Isle of Whithorn","Parish":null,"County":"Wigtown"},"geometry":{"type":"Point","coordinates":[-4.3637633,54.4171608]}},{"type":"Feature","properties":{"fid":286,"Name":"Port Erin Range Front Lighthouse","id":"LH285","Town":"Drummore","Locality":"Mull of Galloway","Parish":null,"County":"Wigtown"},"geometry":{"type":"Point","coordinates":[-4.7593934,54.0872321]}},{"type":"Feature","properties":{"fid":287,"Name":"Thousla Rock Lighthouse","id":"LH286","Town":"Drummore","Locality":"Mull of Galloway","Parish":null,"County":"Wigtown"},"geometry":{"type":"Point","coordinates":[-4.8006274,54.0621483]}}]}