{
"type": "FeatureCollection",
"name": "martellos",
"crs": { "type": "name", "properties": { "name": "urn:ogc:def:crs:OGC:1.3:CRS84" } },
"features": [
{"type":"Feature","properties":{"fid":1,"id":"MT001","Name":"Martello Tower No.1","Town":"Folkestone","Locality":"Capel-le-Ferne","Parish":"Folkestone CP","County":"Kent"},"geometry":{"type":"Point","coordinates":[1.1989390021131,51.091355880544533,87.082617613528924]}},
{"type":"Feature","properties":{"fid":2,"id":"MT002","Name":"Martello Tower No.2","Town":"Folkestone","Locality":"Foord","Parish":"Folkestone CP","County":"Kent"},"geometry":{"type":"Point","coordinates":[1.197000553643159,51.08838018651312,64.390914144159424]}},
{"type":"Feature","properties":{"fid":3,"id":"MT003","Name":"Martello Tower No.3","Town":"Folkestone","Locality":"Foord","Parish":"Folkestone CP","County":"Kent"},"geometry":{"type":"Point","coordinates":[1.197970568113347,51.085270108672852,63.500743118391618]}},
{"type":"Feature","properties":{"fid":4,"id":"MT004","Name":"Martello Tower No.4","Town":"Folkestone","Locality":"Coolinge","Parish":"Folkestone CP","County":"Kent"},"geometry":{"type":"Point","coordinates":[1.155380638336923,51.074989412906078,66.952915365512581]}},
{"type":"Feature","properties":{"fid":5,"id":"MT005","Name":"Martello Tower No.5","Town":"Folkestone","Locality":"Coolinge","Parish":"Sandgate CP","County":"Kent"},"geometry":{"type":"Point","coordinates":[1.150455358714655,51.07673971392898,70.51019350309916]}},
{"type":"Feature","properties":{"fid":6,"id":"MT006","Name":"Martello Tower No.6","Town":"Folkestone","Locality":"Sandgate","Parish":"Sandgate CP","County":"Kent"},"geometry":{"type":"Point","coordinates":[1.142522275390843,51.075434031264066,70.504525080528396]}},
{"type":"Feature","properties":{"fid":7,"id":"MT007","Name":"Martello Tower No.7","Town":"Folkestone","Locality":"Sandgate","Parish":"Sandgate CP","County":"Kent"},"geometry":{"type":"Point","coordinates":[1.137330179458309,51.074906773283267,76.000561395636993]}},
{"type":"Feature","properties":{"fid":8,"id":"MT008","Name":"Martello Tower No.8","Town":"Folkestone","Locality":"Horn Street","Parish":"Sandgate CP","County":"Kent"},"geometry":{"type":"Point","coordinates":[1.130900263498078,51.074458920021208,79.500557236612508]}},
{"type":"Feature","properties":{"fid":9,"id":"MT009","Name":"Martello Tower No.9","Town":"Folkestone","Locality":"Seabrook","Parish":"Sandgate CP","County":"Kent"},"geometry":{"type":"Point","coordinates":[1.125199906555505,51.073885476590242,70.398520280030965]}},
{"type":"Feature","properties":{"fid":10,"id":"MT010","Name":"Martello Tower No.10","Town":"Hythe","Locality":"Hythe","Parish":"Hythe CP","County":"Kent"},"geometry":{"type":"Point","coordinates":[1.0957665767717,51.067919774519837,6.082323722185754]}},
{"type":"Feature","properties":{"fid":11,"id":"MT011","Name":"Martello Tower No.11","Town":"Hythe","Locality":"Hythe","Parish":"Hythe CP","County":"Kent"},"geometry":{"type":"Point","coordinates":[1.08844873494,51.066446363471883,5.402597506721278]}},
{"type":"Feature","properties":{"fid":12,"id":"MT012","Name":"Martello Tower No.12","Town":"Hythe","Locality":"Hythe","Parish":"Hythe CP","County":"Kent"},"geometry":{"type":"Point","coordinates":[1.085061665375959,51.065915953790586,5.480064730981025]}},
{"type":"Feature","properties":{"fid":13,"id":"MT013","Name":"Martello Tower No.13","Town":"Hythe","Locality":"Hythe","Parish":"Hythe CP","County":"Kent"},"geometry":{"type":"Point","coordinates":[1.079725417373165,51.064720535511242,6.301441832357312]}},
{"type":"Feature","properties":{"fid":14,"id":"MT014","Name":"Martello Tower No.14","Town":"Hythe","Locality":"Orchard Valley","Parish":"Hythe CP","County":"Kent"},"geometry":{"type":"Point","coordinates":[1.074127951430952,51.063390620986283,6.449721071730368]}},
{"type":"Feature","properties":{"fid":15,"id":"MT015","Name":"Martello Tower No.15","Town":"Hythe","Locality":"Orchard Valley","Parish":"Hythe CP","County":"Kent"},"geometry":{"type":"Point","coordinates":[1.069971369565692,51.062243810830211,5.616396039543881]}},
{"type":"Feature","properties":{"fid":16,"id":"MT016","Name":"Martello Tower No.16","Town":"Hythe","Locality":"Pennypot","Parish":"Hythe CP","County":"Kent"},"geometry":{"type":"Point","coordinates":[1.064936984960096,51.060651274309947,4.235441276913376]}},
{"type":"Feature","properties":{"fid":17,"id":"MT017","Name":"Martello Tower No.17","Town":"Hythe","Locality":"Pennypot","Parish":"Hythe CP","County":"Kent"},"geometry":{"type":"Point","coordinates":[1.059860861689657,51.05898322359679,2.622247629338785]}},
{"type":"Feature","properties":{"fid":18,"id":"MT018","Name":"Martello Tower No.18","Town":"Hythe","Locality":"Pennypot","Parish":"Hythe CP","County":"Kent"},"geometry":{"type":"Point","coordinates":[1.055010938559455,51.057185407971751,0.827797689671199]}},
{"type":"Feature","properties":{"fid":19,"id":"MT019","Name":"Martello Tower No.19","Town":"Hythe","Locality":"Palmarsh","Parish":"Hythe CP","County":"Kent"},"geometry":{"type":"Point","coordinates":[1.050965658505343,51.055737262086147,5.20670259002737]}},
{"type":"Feature","properties":{"fid":20,"id":"MT020","Name":"Martello Tower No.20","Town":"Hythe","Locality":"Palmarsh","Parish":"Hythe CP","County":"Kent"},"geometry":{"type":"Point","coordinates":[1.046417676932998,51.053690905997321,0.836491353403126]}},
{"type":"Feature","properties":{"fid":21,"id":"MT021","Name":"Martello Tower No.21","Town":"Dymchurch","Locality":"Palmarsh","Parish":"Hythe CP","County":"Kent"},"geometry":{"type":"Point","coordinates":[1.041999657451143,51.051753858514118,2.683410524362575]}},
{"type":"Feature","properties":{"fid":22,"id":"MT022","Name":"Martello Tower No.22","Town":"Dymchurch","Locality":"Donkey Street","Parish":"Dymchurch CP","County":"Kent"},"geometry":{"type":"Point","coordinates":[1.015393805638054,51.036443594957767,2.981047852172829]}},
{"type":"Feature","properties":{"fid":23,"id":"MT023","Name":"Martello Tower No.23","Town":"Dymchurch","Locality":"Donkey Street","Parish":"Dymchurch CP","County":"Kent"},"geometry":{"type":"Point","coordinates":[1.011719396444324,51.034652501464578,4.17561170639553]}},
{"type":"Feature","properties":{"fid":24,"id":"MT024","Name":"Martello Tower No.24","Town":"Dymchurch","Locality":"Dymchurch","Parish":"Dymchurch CP","County":"Kent"},"geometry":{"type":"Point","coordinates":[0.995405692744742,51.024215648006468,4.731427258772221]}},
{"type":"Feature","properties":{"fid":25,"id":"MT025","Name":"Martello Tower No.25","Town":"Dymchurch","Locality":"Dymchurch","Parish":"Dymchurch CP","County":"Kent"},"geometry":{"type":"Point","coordinates":[0.993123974472059,51.022328498998498,3.036664991617777]}},
{"type":"Feature","properties":{"fid":26,"id":"MT026","Name":"Martello Tower No.26","Town":"St Mary's Bay","Locality":"High Knocke","Parish":"Dymchurch CP","County":"Kent"},"geometry":{"type":"Point","coordinates":[0.985848431087424,51.014895193561273,2.956123310579089]}},
{"type":"Feature","properties":{"fid":27,"id":"MT027","Name":"Martello Tower No.27","Town":"St Mary's Bay","Locality":"St Mary's Bay","Parish":"St. Mary in the Marsh CP","County":"Kent"},"geometry":{"type":"Point","coordinates":[0.982678638878292,51.01187250067165,4.651887493973826]}},
{"type":"Feature","properties":{"fid":28,"id":"MT028","Name":"Martello Tower No.28","Town":"Rye","Locality":"Rye Harbour","Parish":"Icklesham CP","County":"East Sussex"},"geometry":{"type":"Point","coordinates":[0.762549359790674,50.936486131659748,14.151955507553019]}},
{"type":"Feature","properties":{"fid":29,"id":"MT029","Name":"Martello Tower No.29","Town":"Rye","Locality":"Rye Harbour","Parish":"Icklesham CP","County":"East Sussex"},"geometry":{"type":"Point","coordinates":[0.759888165161513,50.932273850936831,1.30607063258964]}},
{"type":"Feature","properties":{"fid":30,"id":"MT030","Name":"Martello Tower No.30","Town":"Rye","Locality":"Rye","Parish":"Rye CP","County":"East Sussex"},"geometry":{"type":"Point","coordinates":[0.729446839224921,50.946361943578033,8.626916955135197]}},
{"type":"Feature","properties":{"fid":31,"id":"MT031","Name":"Martello Tower No.31","Town":"Winchelsea Beach","Locality":"Winchelsea Beach","Parish":null,"County":"East Sussex"},"geometry":{"type":"Point","coordinates":[0.728673319665136,50.908211242904187,-0.994777479567633]}},
{"type":"Feature","properties":{"fid":32,"id":"MT032","Name":"Martello Tower No.32","Town":"Winchelsea Beach","Locality":"Winchelsea Beach","Parish":null,"County":"East Sussex"},"geometry":{"type":"Point","coordinates":[0.723270059794587,50.905437649215663,1.93213354175676]}},
{"type":"Feature","properties":{"fid":33,"id":"MT033","Name":"Martello Tower No.33","Town":"Winchelsea Beach","Locality":"Winchelsea Beach","Parish":null,"County":"East Sussex"},"geometry":{"type":"Point","coordinates":[0.716853833655733,50.901889721422577,1.912923704370788]}},
{"type":"Feature","properties":{"fid":34,"id":"MT034","Name":"Martello Tower No.34","Town":"Winchelsea Beach","Locality":"Winchelsea Beach","Parish":null,"County":"East Sussex"},"geometry":{"type":"Point","coordinates":[0.711263000058073,50.899024585547927,1.921342271331212]}},
{"type":"Feature","properties":{"fid":35,"id":"MT035","Name":"Martello Tower No.35","Town":"Pett","Locality":"Winchelsea Beach","Parish":null,"County":"East Sussex"},"geometry":{"type":"Point","coordinates":[0.705669539766951,50.895731248400971,1.925939328327861]}},
{"type":"Feature","properties":{"fid":36,"id":"MT036","Name":"Martello Tower No.36","Town":"Pett","Locality":"Cliff End","Parish":null,"County":"East Sussex"},"geometry":{"type":"Point","coordinates":[0.698765249966871,50.892352966579708,1.916618795695086]}},
{"type":"Feature","properties":{"fid":37,"id":"MT037","Name":"Martello Tower No.37","Town":"Pett","Locality":"Cliff End","Parish":"Pett CP","County":"East Sussex"},"geometry":{"type":"Point","coordinates":[0.692209826330508,50.888367586291409,1.912443842902207]}},
{"type":"Feature","properties":{"fid":38,"id":"MT038","Name":"Martello Tower No.38","Town":"Pett","Locality":"Cliff End","Parish":"Pett CP","County":"East Sussex"},"geometry":{"type":"Point","coordinates":[0.684898404262209,50.884266770060407,-0.248713419016748]}},
{"type":"Feature","properties":{"fid":39,"id":"MT039","Name":"Martello Tower No.39","Town":"Hastings","Locality":"Harley Shute","Parish":null,"County":"East Sussex"},"geometry":{"type":"Point","coordinates":[0.537673217252126,50.84885182613688,2.033160104002645]}},
{"type":"Feature","properties":{"fid":40,"id":"MT040","Name":"Martello Tower No.40","Town":"Hastings","Locality":"Harley Shute","Parish":null,"County":"East Sussex"},"geometry":{"type":"Point","coordinates":[0.530986695759852,50.848535454367799,1.301973710387769]}},
{"type":"Feature","properties":{"fid":41,"id":"MT041","Name":"Martello Tower No.41","Town":"Hastings","Locality":"Bulverhythe","Parish":null,"County":"East Sussex"},"geometry":{"type":"Point","coordinates":[0.525567639797688,50.847815477296393,2.035119938088743]}},
{"type":"Feature","properties":{"fid":42,"id":"MT042","Name":"Martello Tower No.42","Town":"Hastings","Locality":"Bulverhythe","Parish":null,"County":"East Sussex"},"geometry":{"type":"Point","coordinates":[0.519006366133843,50.846465660545419,2.032028311722189]}},
{"type":"Feature","properties":{"fid":43,"id":"MT043","Name":"Martello Tower No.43","Town":"Hastings","Locality":"Glyne Gap","Parish":null,"County":"East Sussex"},"geometry":{"type":"Point","coordinates":[0.510832407309605,50.844603513679957,3.413509691365491]}},
{"type":"Feature","properties":{"fid":44,"id":"MT044","Name":"Martello Tower No.44","Town":"Bexhill-on-Sea","Locality":"Pebsham","Parish":"Bexhill-on-Sea CP","County":"East Sussex"},"geometry":{"type":"Point","coordinates":[0.499225419958291,50.841739008583502,2.140491648061673]}},
{"type":"Feature","properties":{"fid":45,"id":"MT045","Name":"Martello Tower No.45","Town":"Bexhill-on-Sea","Locality":"Old Town","Parish":"Bexhill-on-Sea CP","County":"East Sussex"},"geometry":{"type":"Point","coordinates":[0.483587442907805,50.838178647231842,1.672412589355203]}},
{"type":"Feature","properties":{"fid":46,"id":"MT046","Name":"Martello Tower No.46","Town":"Bexhill-on-Sea","Locality":"Bexhill-on-Sea","Parish":"Bexhill-on-Sea CP","County":"East Sussex"},"geometry":{"type":"Point","coordinates":[0.471803884678252,50.836940312966043,6.950026857890199]}},
{"type":"Feature","properties":{"fid":47,"id":"MT047","Name":"Martello Tower No.47","Town":"Bexhill-on-Sea","Locality":"Bexhill-on-Sea","Parish":"Bexhill-on-Sea CP","County":"East Sussex"},"geometry":{"type":"Point","coordinates":[0.464086963805999,50.835827643146423,1.689647901531459]}},
{"type":"Feature","properties":{"fid":48,"id":"MT048","Name":"Martello Tower No.48","Town":"Bexhill-on-Sea","Locality":"Bexhill-on-Sea","Parish":"Bexhill-on-Sea CP","County":"East Sussex"},"geometry":{"type":"Point","coordinates":[0.454173456333973,50.83480969402617,3.247452656106946]}},
{"type":"Feature","properties":{"fid":49,"id":"MT049","Name":"Martello Tower No.49","Town":"Bexhill-on-Sea","Locality":"Little Common","Parish":"Bexhill-on-Sea CP","County":"East Sussex"},"geometry":{"type":"Point","coordinates":[0.441240208767208,50.833544370778178,4.111072818042729]}},
{"type":"Feature","properties":{"fid":50,"id":"MT050","Name":"Martello Tower No.50","Town":"Bexhill-on-Sea","Locality":"Little Common","Parish":"Bexhill-on-Sea CP","County":"East Sussex"},"geometry":{"type":"Point","coordinates":[0.425184686431894,50.831626752649512,1.672235916746021]}},
{"type":"Feature","properties":{"fid":51,"id":"MT051","Name":"Martello Tower No.51","Town":"Bexhill-on-Sea","Locality":"Normans' Bay","Parish":"Bexhill-on-Sea CP","County":"East Sussex"},"geometry":{"type":"Point","coordinates":[0.414404159705377,50.830410957518559,-0.499447772198571]}},
{"type":"Feature","properties":{"fid":52,"id":"MT052","Name":"Martello Tower No.52","Town":"Bexhill-on-Sea","Locality":"Normans' Bay","Parish":"Bexhill-on-Sea CP","County":"East Sussex"},"geometry":{"type":"Point","coordinates":[0.405424485916472,50.827928333364767,1.295359629314219]}},
{"type":"Feature","properties":{"fid":53,"id":"MT053","Name":"Martello Tower No.53","Town":"Bexhill-on-Sea","Locality":"Normans' Bay","Parish":"Bexhill-on-Sea CP","County":"East Sussex"},"geometry":{"type":"Point","coordinates":[0.399329088990854,50.826607870883997,1.283961986828468]}},
{"type":"Feature","properties":{"fid":54,"id":"MT054","Name":"Martello Tower No.54","Town":"Pevensey Bay","Locality":"Normans' Bay","Parish":"Bexhill-on-Sea CP","County":"East Sussex"},"geometry":{"type":"Point","coordinates":[0.393052643428433,50.825166432532839,10.950774871669079]}},
{"type":"Feature","properties":{"fid":55,"id":"MT055","Name":"Martello Tower No.55","Town":"Pevensey Bay","Locality":"Normans' Bay","Parish":"Bexhill-on-Sea CP","County":"East Sussex"},"geometry":{"type":"Point","coordinates":[0.384936560812401,50.822899028788967,16.000440176528208]}},
{"type":"Feature","properties":{"fid":56,"id":"MT056","Name":"Martello Tower No.56","Town":"Pevensey Bay","Locality":"Beachlands","Parish":"Pevensey CP","County":"East Sussex"},"geometry":{"type":"Point","coordinates":[0.377056686179462,50.82003194230677,3.628941700303323]}},
{"type":"Feature","properties":{"fid":57,"id":"MT058","Name":"Martello Tower No.58","Town":"Pevensey Bay","Locality":"Beachlands","Parish":"Pevensey CP","County":"East Sussex"},"geometry":{"type":"Point","coordinates":[0.368171647688995,50.81744722092678,3.413999026734396]}},
{"type":"Feature","properties":{"fid":58,"id":"MT057","Name":"Martello Tower No.57","Town":"Pevensey Bay","Locality":"Beachlands","Parish":"Pevensey CP","County":"East Sussex"},"geometry":{"type":"Point","coordinates":[0.371310959431677,50.818203723928441,3.07441059633041]}},
{"type":"Feature","properties":{"fid":59,"id":"MT059","Name":"Martello Tower No.59","Town":"Pevensey Bay","Locality":"Beachlands","Parish":"Pevensey CP","County":"East Sussex"},"geometry":{"type":"Point","coordinates":[0.360620037139492,50.815399385488789,6.452392737085475]}},
{"type":"Feature","properties":{"fid":60,"id":"MT060","Name":"Martello Tower No.60","Town":"Pevensey Bay","Locality":"Pevensey Bay","Parish":"Pevensey CP","County":"East Sussex"},"geometry":{"type":"Point","coordinates":[0.348522849204533,50.810679508374911,16.869323965054139]}},
{"type":"Feature","properties":{"fid":61,"id":"MT061","Name":"Martello Tower No.61","Town":"Pevensey Bay","Locality":"Pevensey Bay","Parish":"Pevensey CP","County":"East Sussex"},"geometry":{"type":"Point","coordinates":[0.344493049315291,50.807365139555053,16.081461342739001]}},
{"type":"Feature","properties":{"fid":62,"id":"MT062","Name":"Martello Tower No.62","Town":"Pevensey Bay","Locality":"Crumbles","Parish":"Pevensey CP","County":"East Sussex"},"geometry":{"type":"Point","coordinates":[0.341520147374808,50.80372256947804,15.93352872617513]}},
{"type":"Feature","properties":{"fid":63,"id":"MT064","Name":"Martello Tower No.64","Town":"Crumbles","Locality":"Crumbles","Parish":null,"County":"East Sussex"},"geometry":{"type":"Point","coordinates":[0.335730369042062,50.795855936444283,15.812323131120429]}},
{"type":"Feature","properties":{"fid":64,"id":"MT063","Name":"Martello Tower No.63","Town":"Crumbles","Locality":"Crumbles","Parish":"Pevensey CP","County":"East Sussex"},"geometry":{"type":"Point","coordinates":[0.338659194763511,50.799809930297059,5.616017633829138]}},
{"type":"Feature","properties":{"fid":66,"id":"MT065","Name":"Martello Tower No.65","Town":"Crumbles","Locality":"Crumbles","Parish":null,"County":"East Sussex"},"geometry":{"type":"Point","coordinates":[0.333132698244113,50.791678535602408,-0.879764435022645]}},
{"type":"Feature","properties":{"fid":67,"id":"MT066","Name":"Martello Tower No.66","Town":"Eastbourne","Locality":"Crumbles","Parish":null,"County":"East Sussex"},"geometry":{"type":"Point","coordinates":[0.330673566828596,50.787295209156703,15.900995373681409]}},
{"type":"Feature","properties":{"fid":68,"id":"MT067","Name":"Martello Tower No.67","Town":"Eastbourne","Locality":"Crumbles","Parish":null,"County":"East Sussex"},"geometry":{"type":"Point","coordinates":[0.327746687507209,50.784774847058507,-1.227471770953438]}},
{"type":"Feature","properties":{"fid":69,"id":"MT068","Name":"Martello Tower No.68","Town":"Eastbourne","Locality":"St Anthony's Hill","Parish":null,"County":"East Sussex"},"geometry":{"type":"Point","coordinates":[0.309298884539064,50.79109259093476,20.09256060763235]}},
{"type":"Feature","properties":{"fid":70,"id":"MT069","Name":"Martello Tower No.69","Town":"Eastbourne","Locality":"Langney Village","Parish":null,"County":"East Sussex"},"geometry":{"type":"Point","coordinates":[0.324524547973422,50.783655836871297,1.043071562137814]}},
{"type":"Feature","properties":{"fid":71,"id":"MT070","Name":"Martello Tower No.70","Town":"Eastbourne","Locality":"St Anthony's Hill","Parish":null,"County":"East Sussex"},"geometry":{"type":"Point","coordinates":[0.317039226608999,50.781566470049263,3.822339991747055]}},
{"type":"Feature","properties":{"fid":72,"id":"MT071","Name":"Martello Tower No.71","Town":"Eastbourne","Locality":"Roselands","Parish":null,"County":"East Sussex"},"geometry":{"type":"Point","coordinates":[0.310617417646601,50.779185592942483,2.951433953433036]}},
{"type":"Feature","properties":{"fid":73,"id":"MT072","Name":"Martello Tower No.72","Town":"Eastbourne","Locality":"Roselands","Parish":null,"County":"East Sussex"},"geometry":{"type":"Point","coordinates":[0.306741210437613,50.77706925816738,3.057349341078448]}},
{"type":"Feature","properties":{"fid":74,"id":"MT073","Name":"Martello Tower No.73","Town":"Eastbourne","Locality":"Eastbourne","Parish":null,"County":"East Sussex"},"geometry":{"type":"Point","coordinates":[0.286242801662211,50.761155067675091,18.330090117707371]}},
{"type":"Feature","properties":{"fid":75,"id":"MT074","Name":"Martello Tower No.74","Town":"Seaford","Locality":"Seaford","Parish":"Seaford CP","County":"East Sussex"},"geometry":{"type":"Point","coordinates":[0.103976378182859,50.767040371627267,10.025798041830489]}},
{"type":"Feature","properties":{"fid":76,"id":"MT075","Name":"Martello Tower A","Town":"Point Clear","Locality":"Brightlingsea","Parish":"St. Osyth CP","County":"Essex"},"geometry":{"type":"Point","coordinates":[1.019806700140129,51.801032017451263,3.660127864736795]}},
{"type":"Feature","properties":{"fid":77,"id":"MT076","Name":"Martello Tower B","Town":"Point Clear","Locality":"Point Clear","Parish":"St. Osyth CP","County":"Essex"},"geometry":{"type":"Point","coordinates":[1.036812904450946,51.792102977654928,13.87485745418088]}},
{"type":"Feature","properties":{"fid":78,"id":"MT077","Name":"Martello Tower C","Town":"Jaywick","Locality":"Seawick","Parish":null,"County":"Essex"},"geometry":{"type":"Point","coordinates":[1.094915620573279,51.772679006521848,10.352769101509169]}},
{"type":"Feature","properties":{"fid":79,"id":"MT078","Name":"Martello Tower D","Town":"Clacton-on-Sea","Locality":"Jaywick","Parish":null,"County":"Essex"},"geometry":{"type":"Point","coordinates":[1.131906679771457,51.777305873418207,11.965740896848679]}},
{"type":"Feature","properties":{"fid":80,"id":"MT079","Name":"Martello Tower E","Town":"Clacton-on-Sea","Locality":"Clacton-on-Sea","Parish":null,"County":"Essex"},"geometry":{"type":"Point","coordinates":[1.140354896835294,51.780519131527257,10.24896903619927]}},
{"type":"Feature","properties":{"fid":81,"id":"MT080","Name":"Martello Tower F","Town":"Clacton-on-Sea","Locality":"Clacton-on-Sea","Parish":null,"County":"Essex"},"geometry":{"type":"Point","coordinates":[1.14893975040478,51.785168327454294,18.219765514323601]}},
{"type":"Feature","properties":{"fid":82,"id":"MT081","Name":"Martello Tower G","Town":"Clacton-on-Sea","Locality":"Holland-on-Sea","Parish":null,"County":"Essex"},"geometry":{"type":"Point","coordinates":[1.210811446647309,51.806867245811148,11.06542688450363]}},
{"type":"Feature","properties":{"fid":83,"id":"MT082","Name":"Martello Tower H","Town":"Clacton-on-Sea","Locality":"Great Holland","Parish":null,"County":"Essex"},"geometry":{"type":"Point","coordinates":[1.224200153569444,51.813826301317199,1.63592584205682]}},
{"type":"Feature","properties":{"fid":84,"id":"MT083","Name":"Martello Tower I","Town":"Frinton-on-Sea","Locality":"Frinton-on-Sea","Parish":"Frinton and Walton CP","County":"Essex"},"geometry":{"type":"Point","coordinates":[1.232318083662767,51.81800336455111,1.759758456163167]}},
{"type":"Feature","properties":{"fid":85,"id":"MT084","Name":"Martello Tower J","Town":"Walton-on-the-Naze","Locality":"Walton-on-the-Naze","Parish":"Frinton and Walton CP","County":"Essex"},"geometry":{"type":"Point","coordinates":[1.269952515798316,51.846951548614292,13.970683215786639]}},
{"type":"Feature","properties":{"fid":86,"id":"MT085","Name":"Martello Tower K","Town":"Walton-on-the-Naze","Locality":"Walton-on-the-Naze","Parish":"Frinton and Walton CP","County":"Essex"},"geometry":{"type":"Point","coordinates":[1.266694767735783,51.851298526999329,7.793460845872058]}},
{"type":"Feature","properties":{"fid":87,"id":"MT086","Name":"Martello Tower L","Town":"Shotley Gate","Locality":"Shotley Gate","Parish":"Shotley CP","County":"Suffolk"},"geometry":{"type":"Point","coordinates":[1.270675600144735,51.955922940792462,22.91843424960188]}},
{"type":"Feature","properties":{"fid":88,"id":"MT087","Name":"Martello Tower M","Town":"Shotley Gate","Locality":"Shotley Gate","Parish":"Shotley CP","County":"Suffolk"},"geometry":{"type":"Point","coordinates":[1.275270618487319,51.960187660459667,10.46998384045496]}},
{"type":"Feature","properties":{"fid":89,"id":"MT088","Name":"Martello Tower N","Town":"Felixstowe","Locality":"Trimley St Mary","Parish":"Felixstowe CP","County":"Suffolk"},"geometry":{"type":"Point","coordinates":[1.312133695754829,51.958216112830392,3.043445450904114]}},
{"type":"Feature","properties":{"fid":90,"id":"MT089","Name":"Martello Tower O","Town":"Felixstowe","Locality":"Bath Side","Parish":null,"County":"Suffolk"},"geometry":{"type":"Point","coordinates":[1.317241751787004,51.932391470278567,0.047989025667572]}},
{"type":"Feature","properties":{"fid":91,"id":"MT090","Name":"Martello Tower P","Town":"Felixstowe","Locality":"Sea Shore Village","Parish":"Felixstowe CP","County":"Suffolk"},"geometry":{"type":"Point","coordinates":[1.334905856629693,51.94896202095903,2.969069671935927]}},
{"type":"Feature","properties":{"fid":92,"id":"MT091","Name":"Martello Tower Q","Town":"Felixstowe","Locality":"Sea Shore Village","Parish":"Felixstowe CP","County":"Suffolk"},"geometry":{"type":"Point","coordinates":[1.345056104994649,51.959274983590973,16.671148240455079]}},
{"type":"Feature","properties":{"fid":93,"id":"MT092","Name":"Martello Tower R","Town":"Felixstowe","Locality":"Felixstowe","Parish":"Felixstowe CP","County":"Suffolk"},"geometry":{"type":"Point","coordinates":[1.361396119326843,51.963098805705009,13.73775734928731]}},
{"type":"Feature","properties":{"fid":94,"id":"MT093","Name":"Martello Tower S","Town":"Felixstowe","Locality":"Old Felixstowe","Parish":"Felixstowe CP","County":"Suffolk"},"geometry":{"type":"Point","coordinates":[1.369219928680943,51.96490200170485,10.17850872531219]}},
{"type":"Feature","properties":{"fid":95,"id":"MT094","Name":"Martello Tower T","Town":"Felixstowe","Locality":"Old Felixstowe","Parish":"Felixstowe CP","County":"Suffolk"},"geometry":{"type":"Point","coordinates":[1.386894693727212,51.979510066040312,1.713906282365085]}},
{"type":"Feature","properties":{"fid":96,"id":"MT095","Name":"Martello Tower U","Town":"Felixstowe","Locality":"Old Felixstowe","Parish":"Felixstowe CP","County":"Suffolk"},"geometry":{"type":"Point","coordinates":[1.389730033628536,51.985551022332189,3.598729556658375]}},
{"type":"Feature","properties":{"fid":97,"id":"MT096","Name":"Martello Tower V","Town":"Felixstowe","Locality":"Bawdsey","Parish":"Bawdsey CP","County":"Suffolk"},"geometry":{"type":"Point","coordinates":[1.400428487661751,51.989679818066563,11.086530573945099]}},
{"type":"Feature","properties":{"fid":98,"id":"MT097","Name":"Martello Tower W","Town":"Bawdsey","Locality":"Bawdsey","Parish":"Bawdsey CP","County":"Suffolk"},"geometry":{"type":"Point","coordinates":[1.431272011486278,52.006257820307077,4.028401668184543]}},
{"type":"Feature","properties":{"fid":99,"id":"MT098","Name":"Martello Tower X","Town":"Bawdsey","Locality":"Bawdsey","Parish":"Bawdsey CP","County":"Suffolk"},"geometry":{"type":"Point","coordinates":[1.434496977091801,52.010488032780138,2.989936533674369]}},
{"type":"Feature","properties":{"fid":100,"id":"MT099","Name":"Martello Tower Y","Town":"Bawdsey","Locality":"Shingle Street","Parish":"Bawdsey CP","County":"Suffolk"},"geometry":{"type":"Point","coordinates":[1.436021991375316,52.017819792177242,-0.240251481058401]}},
{"type":"Feature","properties":{"fid":101,"id":"MT100","Name":"Martello Tower Z","Town":"Alderton (East Suffolk)","Locality":"Shingle Street","Parish":"Alderton CP","County":"Suffolk"},"geometry":{"type":"Point","coordinates":[1.440219813621926,52.025737133721968,-0.404448936948195]}},
{"type":"Feature","properties":{"fid":102,"id":"MT101","Name":"Martello Tower AA","Town":"Oak Hill","Locality":"Shingle Street","Parish":"Bawdsey CP","County":"Suffolk"},"geometry":{"type":"Point","coordinates":[1.447749603778197,52.030835663658117,1.403740519945043]}},
{"type":"Feature","properties":{"fid":103,"id":"MT102","Name":"Martello Tower BB","Town":"Oak Hill","Locality":"Shingle Street","Parish":"Bawdsey CP","County":"Suffolk"},"geometry":{"type":"Point","coordinates":[1.452984639163184,52.034963068246277,0.748928670508378]}}
]
}
