{
"type": "FeatureCollection",
"name": "water-towers",
"crs": { "type": "name", "properties": { "name": "urn:ogc:def:crs:OGC:1.3:CRS84" } },
"features": [
{"type":"Feature","properties":{"fid":1,"id":"WT234","Name":"Meppershall Water Tower","name1_text":"Meppershall","name1":"Upper Stondon","Name_2":"Stondon CP","Name_3":"Bedfordshire"},"geometry":{"type":"Point","coordinates":[-0.33302450212753,52.008907637926868,80.633320903781168]}},
{"type":"Feature","properties":{"fid":2,"id":"WT235","Name":"Toplers Hill Tower","name1_text":"Stotfold","name1":"Edworth","Name_2":"Biggleswade CP","Name_3":"Bedfordshire"},"geometry":{"type":"Point","coordinates":[-0.229080710860007,52.047164220602951,74.604844977849012]}},
{"type":"Feature","properties":{"fid":3,"id":"WT057","Name":"Chilton Foliat Water Tower","name1_text":"Hungerford","name1":"Leverton","Name_2":"Hungerford CP","Name_3":"Berkshire"},"geometry":{"type":"Point","coordinates":[-1.524673636797516,51.435222969470288,145.888165037680693]}},
{"type":"Feature","properties":{"fid":4,"id":"WT211","Name":"Brightwalton Water Tower","name1_text":"Chaddleworth","name1":"Brightwalton","Name_2":"Brightwalton CP","Name_3":"Berkshire"},"geometry":{"type":"Point","coordinates":[-1.388406345417834,51.511712989291397,186.198453505766111]}},
{"type":"Feature","properties":{"fid":5,"id":"WT212","Name":"Farnborough Water Tower","name1_text":"Peasemore","name1":"Farnborough","Name_2":"Farnborough CP","Name_3":"Berkshire"},"geometry":{"type":"Point","coordinates":[-1.370437244040257,51.535343674269583,219.94211062097429]}},
{"type":"Feature","properties":{"fid":6,"id":"WT213","Name":"Wash Common Water Tower","name1_text":"Newbury","name1":"Wash Common","Name_2":"Newbury CP","Name_3":"Berkshire"},"geometry":{"type":"Point","coordinates":[-1.349091378361512,51.380466486462339,128.007669178305605]}},
{"type":"Feature","properties":{"fid":7,"id":"WT214","Name":"Snelsmore Water Tower","name1_text":"Newbury","name1":"Winterbourne","Name_2":"Winterbourne CP","Name_3":"Berkshire"},"geometry":{"type":"Point","coordinates":[-1.336724672401496,51.445368053906321,148.960811222284093]}},
{"type":"Feature","properties":{"fid":8,"id":"WT215","Name":"Greenham Water Tower","name1_text":"Newbury","name1":"Bury's Bank","Name_2":"Greenham CP","Name_3":"Berkshire"},"geometry":{"type":"Point","coordinates":[-1.300067148892939,51.386353026363437,122.209704172591898]}},
{"type":"Feature","properties":{"fid":9,"id":"WT216","Name":"Frilsham Water Tower","name1_text":"Hampstead Norreys","name1":"Frilsham","Name_2":"Frilsham CP","Name_3":"Berkshire"},"geometry":{"type":"Point","coordinates":[-1.210592517475148,51.457078739878952,134.545168620128095]}},
{"type":"Feature","properties":{"fid":10,"id":"WT217","Name":"Bower Farm Water Tower","name1_text":"Streatley (West Berkshire)","name1":"Aldworth","Name_2":"Aldworth CP","Name_3":"Berkshire"},"geometry":{"type":"Point","coordinates":[-1.200529659693912,51.51857614539967,183.480162357993493]}},
{"type":"Feature","properties":{"fid":11,"id":"WT218","Name":"Tadley Water Tower","name1_text":"Tadley","name1":"Heath End","Name_2":"Aldermaston CP","Name_3":"Berkshire"},"geometry":{"type":"Point","coordinates":[-1.1657500451207,51.361161890951699,107.321411293285806]}},
{"type":"Feature","properties":{"fid":12,"id":"WT219","Name":"Burghfield Water Tower","name1_text":"Burghfield Common","name1":"Burghfield Common","Name_2":"Stratfield Mortimer CP","Name_3":"Berkshire"},"geometry":{"type":"Point","coordinates":[-1.072712095195288,51.387924025595453,122.664139647746495]}},
{"type":"Feature","properties":{"fid":13,"id":"WT220","Name":"Park Lane Water Tower","name1_text":"Reading","name1":"Little Heath","Name_2":null,"Name_3":"Berkshire"},"geometry":{"type":"Point","coordinates":[-1.047051914997286,51.451588834258288,140.338904281232686]}},
{"type":"Feature","properties":{"fid":14,"id":"WT221","Name":"Norcot Road Water Tower","name1_text":"Reading","name1":"Tilehurst","Name_2":null,"Name_3":"Berkshire"},"geometry":{"type":"Point","coordinates":[-1.03348334545907,51.459286272386358,111.435551005397102]}},
{"type":"Feature","properties":{"fid":15,"id":"WT222","Name":"Bath Road Water Tower","name1_text":"Reading","name1":"Coley","Name_2":null,"Name_3":"Berkshire"},"geometry":{"type":"Point","coordinates":[-0.99014772406647,51.449478667645543,70.676891781500927]}},
{"type":"Feature","properties":{"fid":16,"id":"WT223","Name":"Untitled placemark","name1_text":"Caversham","name1":"Emmer Green","Name_2":null,"Name_3":"Berkshire"},"geometry":{"type":"Point","coordinates":[-0.961383729448038,51.491714252159248,113.231133004713698]}},
{"type":"Feature","properties":{"fid":17,"id":"WT224","Name":"Emmer Green Water Tower","name1_text":"Caversham","name1":"Emmer Green","Name_2":null,"Name_3":"Berkshire"},"geometry":{"type":"Point","coordinates":[-0.96136932392944,51.491697547267329,113.155463659932806]}},
{"type":"Feature","properties":{"fid":18,"id":"WT225","Name":"Earley Water Tower","name1_text":"Reading","name1":"Earley","Name_2":"Shinfield CP","Name_3":"Berkshire"},"geometry":{"type":"Point","coordinates":[-0.94260461411578,51.428558888576447,99.433854648017203]}},
{"type":"Feature","properties":{"fid":19,"id":"WT226","Name":"Farley Hill Water Tower","name1_text":"Farley Hill","name1":"Farley Hill","Name_2":"Swallowfield CP","Name_3":"Berkshire"},"geometry":{"type":"Point","coordinates":[-0.923267020563232,51.379331190993653,87.226986255455316]}},
{"type":"Feature","properties":{"fid":20,"id":"WT227","Name":"Arborfield Military Water Tower","name1_text":"Arborfield Garrison","name1":"Arborfield Garrison","Name_2":"Barkham CP","Name_3":"Berkshire"},"geometry":{"type":"Point","coordinates":[-0.893894048771601,51.390961476848211,57.804430550741387]}},
{"type":"Feature","properties":{"fid":21,"id":"WT228","Name":"Mursley Water Tower","name1_text":"Mursley","name1":"Mursley","Name_2":"Mursley CP","Name_3":"Buckinghamshire"},"geometry":{"type":"Point","coordinates":[-0.812379537679079,51.955517306337804,154.423038495997986]}},
{"type":"Feature","properties":{"fid":22,"id":"WT229","Name":"Green Hailey Water Tower","name1_text":"Princes Risborough","name1":"Green Hailey","Name_2":"Great and Little Hampden CP","Name_3":"Buckinghamshire"},"geometry":{"type":"Point","coordinates":[-0.808072565900366,51.724534538826433,246.822929744591704]}},
{"type":"Feature","properties":{"fid":23,"id":"WT230","Name":"Lane End Water Tower","name1_text":"Lane End","name1":"Lane End","Name_2":"Lane End CP","Name_3":"Buckinghamshire"},"geometry":{"type":"Point","coordinates":[-0.841531093473114,51.618733778787401,201.332107145385208]}},
{"type":"Feature","properties":{"fid":24,"id":"WT231","Name":"Flackwell Heath Water Tower","name1_text":"Bourne End and Flackwell Heath","name1":"Wooburn Green","Name_2":"Chepping Wycombe CP","Name_3":"Buckinghamshire"},"geometry":{"type":"Point","coordinates":[-0.697109665703918,51.594224282572377,128.71254183569701]}},
{"type":"Feature","properties":{"fid":25,"id":"WT232","Name":"Cliveden Water Tower","name1_text":"Bourne End and Flackwell Heath","name1":"Hedsor","Name_2":"Taplow CP","Name_3":"Buckinghamshire"},"geometry":{"type":"Point","coordinates":[-0.688720096380675,51.558871099909801,89.128694785764026]}},
{"type":"Feature","properties":{"fid":26,"id":"WT233","Name":"Coleshill Water Tower","name1_text":"Coleshill (Buckinghamshire)","name1":"Amersham Old Town","Name_2":"Coleshill CP","Name_3":"Buckinghamshire"},"geometry":{"type":"Point","coordinates":[-0.617454765707187,51.652495150177216,169.183385963811588]}},
{"type":"Feature","properties":{"fid":27,"id":"WT293","Name":"Over Water Tower","name1_text":"Over","name1":"Over End","Name_2":"Over CP","Name_3":"Cambridgeshire"},"geometry":{"type":"Point","coordinates":[0.029947170407436,52.307505289894472,15.968983771811191]}},
{"type":"Feature","properties":{"fid":28,"id":"WT294","Name":"Madingley Water Tower","name1_text":"Coton","name1":"Madingley","Name_2":"Comberton CP","Name_3":"Cambridgeshire"},"geometry":{"type":"Point","coordinates":[0.037377087737998,52.215314218076003,67.54023603885318]}},
{"type":"Feature","properties":{"fid":29,"id":"WT295","Name":"Cottenham Water Tower","name1_text":"Cottenham","name1":"Cottenham","Name_2":"Cottenham CP","Name_3":"Cambridgeshire"},"geometry":{"type":"Point","coordinates":[0.115880769514076,52.285582198313392,12.41824437819769]}},
{"type":"Feature","properties":{"fid":30,"id":"WT296","Name":"Sawston Water Tower","name1_text":"Sawston","name1":"Sawston","Name_2":"Sawston CP","Name_3":"Cambridgeshire"},"geometry":{"type":"Point","coordinates":[0.174788306722799,52.127571603255923,28.102611837380749]}},
{"type":"Feature","properties":{"fid":31,"id":"WT297","Name":"Queen Adelaide Water Tower","name1_text":"Ely","name1":"Chettisham","Name_2":"Ely CP","Name_3":"Cambridgeshire"},"geometry":{"type":"Point","coordinates":[0.27946397481196,52.412286106507402,22.122506522960489]}},
{"type":"Feature","properties":{"fid":32,"id":"WT298","Name":"Balsham Water Tower","name1_text":"Balsham","name1":"Balsham","Name_2":"Balsham CP","Name_3":"Cambridgeshire"},"geometry":{"type":"Point","coordinates":[0.321427200978697,52.125355017355297,117.891155795038003]}},
{"type":"Feature","properties":{"fid":33,"id":"WT467","Name":"Hargrave Water Tower","name1_text":"Hargrave","name1":"Covington","Name_2":"Covington CP","Name_3":"Cambridgeshire"},"geometry":{"type":"Point","coordinates":[-0.465045661961681,52.323222345525913,97.030402809700291]}},
{"type":"Feature","properties":{"fid":34,"id":"WT565","Name":"Ellesmere Water Tower","name1_text":"Ellesmere Port","name1":"Overpool","Name_2":null,"Name_3":"Cheshire"},"geometry":{"type":"Point","coordinates":[-2.918318185193175,53.29949239497175,52.194754434849578]}},
{"type":"Feature","properties":{"fid":35,"id":"WT566","Name":"Overleigh Water Tower","name1_text":"Chester","name1":"Handbridge","Name_2":null,"Name_3":"Cheshire"},"geometry":{"type":"Point","coordinates":[-2.889465708445559,53.181201594771892,49.038369087530612]}},
{"type":"Feature","properties":{"fid":36,"id":"WT567","Name":"Upton Water Tower","name1_text":"Chester","name1":"Abbot's Mead","Name_2":"Upton-by-Chester CP","Name_3":"Cheshire"},"geometry":{"type":"Point","coordinates":[-2.900962027063445,53.212385852540393,44.254940045395408]}},
{"type":"Feature","properties":{"fid":37,"id":"WT568","Name":"Boughton Water Tower","name1_text":"Chester","name1":"Boughton","Name_2":null,"Name_3":"Cheshire"},"geometry":{"type":"Point","coordinates":[-2.870838794516501,53.193870580093282,53.635267741169869]}},
{"type":"Feature","properties":{"fid":38,"id":"WT569","Name":"Saighton Water Tower","name1_text":"Christleton and Waverton","name1":"Saighton","Name_2":"Aldford and Saighton CP","Name_3":"Cheshire"},"geometry":{"type":"Point","coordinates":[-2.835170957633148,53.152140040948019,39.186101814156324]}},
{"type":"Feature","properties":{"fid":39,"id":"WT570","Name":"Wirswall Water Tower","name1_text":"Whitchurch (Shropshire)","name1":"Wirswall","Name_2":"Marbury and District CP","Name_3":"Cheshire"},"geometry":{"type":"Point","coordinates":[-2.674950652748963,52.993627156570881,155.12053831433019]}},
{"type":"Feature","properties":{"fid":40,"id":"WT571","Name":"Norton Water Tower","name1_text":"Runcorn","name1":"Norton Cross","Name_2":null,"Name_3":"Cheshire"},"geometry":{"type":"Point","coordinates":[-2.671294658612142,53.329533549251167,99.723456427750207]}},
{"type":"Feature","properties":{"fid":41,"id":"WT572","Name":"Cuddington Water Tower","name1_text":"Cuddington (Cheshire West and Chester)","name1":"Stonyford","Name_2":"Cuddington CP","Name_3":"Cheshire"},"geometry":{"type":"Point","coordinates":[-2.621074010090171,53.238445877654733,92.767654644069921]}},
{"type":"Feature","properties":{"fid":42,"id":"WT573","Name":"Lymm Water Tower","name1_text":"Lymm","name1":"Church Green","Name_2":"Lymm CP","Name_3":"Cheshire"},"geometry":{"type":"Point","coordinates":[-2.471509448959539,53.375650158591192,75.315775681687654]}},
{"type":"Feature","properties":{"fid":43,"id":"WT574","Name":"High Legh Water Tower","name1_text":"High Legh","name1":"High Legh","Name_2":"High Legh CP","Name_3":"Cheshire"},"geometry":{"type":"Point","coordinates":[-2.446395871345122,53.347207785681469,79.144958296615627]}},
{"type":"Feature","properties":{"fid":44,"id":"WT575","Name":"Mobberley Road Water Tower","name1_text":"Knutsford","name1":"Cross Town","Name_2":"Knutsford CP","Name_3":"Cheshire"},"geometry":{"type":"Point","coordinates":[-2.363293084004908,53.307023768091128,64.902334958591908]}},
{"type":"Feature","properties":{"fid":45,"id":"WT576","Name":"Bowden Bank Water Tower","name1_text":"Over Peover","name1":"Marthall","Name_2":"Peover Superior and Snelson CP","Name_3":"Cheshire"},"geometry":{"type":"Point","coordinates":[-2.315278894687922,53.271658257019617,81.094727432386222]}},
{"type":"Feature","properties":{"fid":46,"id":"WT577","Name":"Congleton Water Tower 1","name1_text":"Congleton","name1":"Astbury Marsh","Name_2":"Congleton CP","Name_3":"Cheshire"},"geometry":{"type":"Point","coordinates":[-2.228160147905395,53.166008992951653,111.303443921830805]}},
{"type":"Feature","properties":{"fid":47,"id":"WT578","Name":"Congleton Water Tower 2","name1_text":"Congleton","name1":"Astbury Marsh","Name_2":"Congleton CP","Name_3":"Cheshire"},"geometry":{"type":"Point","coordinates":[-2.228407649597006,53.166201450714638,111.085265375856807]}},
{"type":"Feature","properties":{"fid":48,"id":"WT579","Name":"Moss Water Tower","name1_text":"Congleton","name1":"Mossley","Name_2":"Congleton CP","Name_3":"Cheshire"},"geometry":{"type":"Point","coordinates":[-2.203107943432427,53.154646422730437,132.863897683576994]}},
{"type":"Feature","properties":{"fid":49,"id":"WT580","Name":"Culcheth Water Tower","name1_text":"Culcheth","name1":"Twiss Green","Name_2":"Culcheth and Glazebury CP","Name_3":"Cheshire"},"geometry":{"type":"Point","coordinates":[-2.527558210760254,53.460485993088419,30.74805825468302]}},
{"type":"Feature","properties":{"fid":50,"id":"WT581","Name":"Mostyn Water Tower","name1_text":"Neston (Cheshire West and Chester)","name1":"Parkgate","Name_2":"Neston CP","Name_3":"Cheshire"},"geometry":{"type":"Point","coordinates":[-3.080577991714954,53.294076604847596,27.392258554822821]}},
{"type":"Feature","properties":{"fid":51,"id":"WT582","Name":"Chester City Walls Water Tower","name1_text":"Chester","name1":"Chester","Name_2":null,"Name_3":"Cheshire"},"geometry":{"type":"Point","coordinates":[-2.899547605174593,53.192597318174201,19.384519504222471]}},
{"type":"Feature","properties":{"fid":52,"id":"WT583","Name":"Bonewaldesthorne's Tower","name1_text":"Chester","name1":"Chester","Name_2":null,"Name_3":"Cheshire"},"geometry":{"type":"Point","coordinates":[-2.898915413434525,53.19267982743964,23.795599153605899]}},
{"type":"Feature","properties":{"fid":53,"id":"WT584","Name":"Steam Mill Tower","name1_text":"Chester","name1":"Newtown","Name_2":null,"Name_3":"Cheshire"},"geometry":{"type":"Point","coordinates":[-2.879925722754479,53.193444993840671,54.065488924422873]}},
{"type":"Feature","properties":{"fid":54,"id":"WT585","Name":"Daresbury Water Tower","name1_text":"Runcorn","name1":"Daresbury","Name_2":"Daresbury CP","Name_3":"Cheshire"},"geometry":{"type":"Point","coordinates":[-2.638150415757745,53.342788438964909,106.238321349489098]}},
{"type":"Feature","properties":{"fid":55,"id":"WT506","Name":"Mackworth Water Tower","name1_text":"Derby","name1":"Mackworth","Name_2":"Mackworth CP","Name_3":"Derbyshire"},"geometry":{"type":"Point","coordinates":[-1.536065172009849,52.928091944850472,141.009085971466305]}},
{"type":"Feature","properties":{"fid":56,"id":"WT507","Name":"Boundary Water Tower","name1_text":"Blackfordby","name1":"Boundary","Name_2":"Hartshorne CP","Name_3":"Derbyshire"},"geometry":{"type":"Point","coordinates":[-1.505555537657354,52.767827407378498,186.616332154769907]}},
{"type":"Feature","properties":{"fid":57,"id":"WT508","Name":"Hillstown Water Tower","name1_text":"Bolsover","name1":"Hillstown","Name_2":"Old Bolsover CP","Name_3":"Derbyshire"},"geometry":{"type":"Point","coordinates":[-1.283884120839981,53.223908091719487,193.652061257494609]}},
{"type":"Feature","properties":{"fid":58,"id":"WT509","Name":"Shipley Hall Water Tower","name1_text":"Heanor","name1":"Marlpool","Name_2":"Shipley CP","Name_3":"Derbyshire"},"geometry":{"type":"Point","coordinates":[-1.350851967534562,52.993670784583543,133.799534545494595]}},
{"type":"Feature","properties":{"fid":59,"id":"WT510","Name":"Hassop Hall Water Tower","name1_text":"Bakewell","name1":"Hassop","Name_2":"Hassop CP","Name_3":"Derbyshire"},"geometry":{"type":"Point","coordinates":[-1.669005885144175,53.247122331791722,182.54003618153061]}},
{"type":"Feature","properties":{"fid":60,"id":"WT553","Name":"Green Lane Water Tower","name1_text":"Standish","name1":"Standish","Name_2":null,"Name_3":"Greater Manchester"},"geometry":{"type":"Point","coordinates":[-2.66277673102667,53.581304873709819,134.674378104843612]}},
{"type":"Feature","properties":{"fid":61,"id":"WT554","Name":"Snydle Water Tower","name1_text":"Hunger Hill (Bolton)","name1":"Chequerbent","Name_2":"Westhoughton CP","Name_3":"Greater Manchester"},"geometry":{"type":"Point","coordinates":[-2.497590782612282,53.556028370773717,157.608444850181201]}},
{"type":"Feature","properties":{"fid":62,"id":"WT555","Name":"Ainsworth Water Tower","name1_text":"Bury (Bury)","name1":"Cockey Moor","Name_2":null,"Name_3":"Greater Manchester"},"geometry":{"type":"Point","coordinates":[-2.345736789083429,53.589973419008373,180.725601888722906]}},
{"type":"Feature","properties":{"fid":63,"id":"WT556","Name":"Cook Street Brewery Water Tower","name1_text":"Salford","name1":"Manchester","Name_2":null,"Name_3":"Greater Manchester"},"geometry":{"type":"Point","coordinates":[-2.253519656436433,53.484425759509257,71.963229940512392]}},
{"type":"Feature","properties":{"fid":64,"id":"WT236","Name":"Kingshill Water Tower","name1_text":"Berkhamsted","name1":"Berkhamsted","Name_2":"Berkhamsted CP","Name_3":"Hertfordshire"},"geometry":{"type":"Point","coordinates":[-0.579734213333297,51.754473896584678,167.344538398902387]}},
{"type":"Feature","properties":{"fid":65,"id":"WT237","Name":"Potten End Water Tower","name1_text":"Potten End","name1":"Potten End","Name_2":"Nettleden with Potten End CP","Name_3":"Hertfordshire"},"geometry":{"type":"Point","coordinates":[-0.531755790924636,51.769304397548638,169.152082284535709]}},
{"type":"Feature","properties":{"fid":66,"id":"WT238","Name":"Felden Water Tower","name1_text":"Hemel Hempstead","name1":"Felden","Name_2":null,"Name_3":"Hertfordshire"},"geometry":{"type":"Point","coordinates":[-0.492865269687795,51.733513993717587,172.417059256998812]}},
{"type":"Feature","properties":{"fid":67,"id":"WT239","Name":"Great Gaddesden Water Tower","name1_text":"Markyate","name1":"Jockey End","Name_2":"Great Gaddesden CP","Name_3":"Hertfordshire"},"geometry":{"type":"Point","coordinates":[-0.481146994189214,51.807010437119111,166.61356454630689]}},
{"type":"Feature","properties":{"fid":68,"id":"WT240","Name":"Markyate Water Tower","name1_text":"Markyate","name1":"Aley Green","Name_2":"Markyate CP","Name_3":"Hertfordshire"},"geometry":{"type":"Point","coordinates":[-0.450896845023157,51.845681255302601,165.4615007857698]}},
{"type":"Feature","properties":{"fid":69,"id":"WT241","Name":"High Street Green Water Tower","name1_text":"Hemel Hempstead","name1":"Cupid Green","Name_2":null,"Name_3":"Hertfordshire"},"geometry":{"type":"Point","coordinates":[-0.447139927153485,51.763973660950818,150.70662528406001]}},
{"type":"Feature","properties":{"fid":70,"id":"WT242","Name":"Redding Wood Water Tower","name1_text":"Redbourn","name1":"Kinsbourne Green","Name_2":"Redbourn CP","Name_3":"Hertfordshire"},"geometry":{"type":"Point","coordinates":[-0.41363502926572,51.812970067961288,140.509620780702107]}},
{"type":"Feature","properties":{"fid":71,"id":"WT243","Name":"Tea Green Water Tower","name1_text":"Luton","name1":"Tea Green","Name_2":"Offley CP","Name_3":"Hertfordshire"},"geometry":{"type":"Point","coordinates":[-0.349300625636463,51.895948235255091,160.727906932145487]}},
{"type":"Feature","properties":{"fid":72,"id":"WT244","Name":"Offley Water Tower","name1_text":"Great Offley","name1":"Great Offley","Name_2":"Offley CP","Name_3":"Hertfordshire"},"geometry":{"type":"Point","coordinates":[-0.343240927659732,51.932573439034748,165.303180622457489]}},
{"type":"Feature","properties":{"fid":73,"id":"WT245","Name":"Peters Green Water Tower","name1_text":"Luton","name1":"Peters Green","Name_2":"Kimpton CP","Name_3":"Hertfordshire"},"geometry":{"type":"Point","coordinates":[-0.343536983200604,51.859546333326271,149.092876444989599]}},
{"type":"Feature","properties":{"fid":74,"id":"WT246","Name":"Pirton Water Tower","name1_text":"Pirton","name1":"Burge End","Name_2":"Pirton CP","Name_3":"Hertfordshire"},"geometry":{"type":"Point","coordinates":[-0.338962395944144,51.971566437905373,82.159910338019699]}},
{"type":"Feature","properties":{"fid":75,"id":"WT247","Name":"Whitwell Water Tower","name1_text":"Whitwell (North Hertfordshire)","name1":"Whitwell","Name_2":"St. Paul's Walden CP","Name_3":"Hertfordshire"},"geometry":{"type":"Point","coordinates":[-0.290138654175293,51.872754742640637,132.390876733180193]}},
{"type":"Feature","properties":{"fid":76,"id":"WT248","Name":"Windmill Hill Water Tower","name1_text":"Hitchin","name1":"Sunnyside","Name_2":null,"Name_3":"Hertfordshire"},"geometry":{"type":"Point","coordinates":[-0.271035146200627,51.94844453889548,106.609796145771099]}},
{"type":"Feature","properties":{"fid":77,"id":"WT249","Name":"Ayot St Lawrence Water Tower","name1_text":"Kimpton","name1":"Ayot St Lawrence","Name_2":"Kimpton CP","Name_3":"Hertfordshire"},"geometry":{"type":"Point","coordinates":[-0.273552635341768,51.839022719677068,127.730602419785399]}},
{"type":"Feature","properties":{"fid":78,"id":"WT250","Name":"Wymondley Water Tower","name1_text":"Little Wymondley","name1":"Little Wymondley","Name_2":"Wymondley CP","Name_3":"Hertfordshire"},"geometry":{"type":"Point","coordinates":[-0.234257403241965,51.928529353145009,99.573782287055721]}},
{"type":"Feature","properties":{"fid":79,"id":"WT251","Name":"Codicote Water Tower","name1_text":"Codicote","name1":"Codicote","Name_2":"Codicote CP","Name_3":"Hertfordshire"},"geometry":{"type":"Point","coordinates":[-0.236154391218487,51.854141941554659,113.119241894669898]}},
{"type":"Feature","properties":{"fid":80,"id":"WT252","Name":"Potters Heath Water Tower","name1_text":"Woolmer Green","name1":"Pottersheath","Name_2":"Welwyn CP","Name_3":"Hertfordshire"},"geometry":{"type":"Point","coordinates":[-0.206904234453544,51.846754380425629,123.035760205155498]}},
{"type":"Feature","properties":{"fid":81,"id":"WT253","Name":"Rabley Heath Water Tower","name1_text":"Woolmer Green","name1":"Rableyheath","Name_2":"Codicote CP","Name_3":"Hertfordshire"},"geometry":{"type":"Point","coordinates":[-0.203689050793414,51.856334240908602,130.420316693802306]}},
{"type":"Feature","properties":{"fid":82,"id":"WT254","Name":"Brookmans Park Water Tower","name1_text":"Brookmans Park","name1":"Bell Bar","Name_2":"Hatfield CP","Name_3":"Hertfordshire"},"geometry":{"type":"Point","coordinates":[-0.174922770168338,51.730621732861472,129.239984590081406]}},
{"type":"Feature","properties":{"fid":83,"id":"WT255","Name":"Weston Water Tower","name1_text":"Weston (North Hertfordshire)","name1":"Green End","Name_2":"Weston CP","Name_3":"Hertfordshire"},"geometry":{"type":"Point","coordinates":[-0.166426774663128,51.958222663882857,147.280913074685287]}},
{"type":"Feature","properties":{"fid":84,"id":"WT256","Name":"Bulls Green Water Tower","name1_text":"Tewin Wood","name1":"Bull's Green","Name_2":"Watton-at-Stone CP","Name_3":"Hertfordshire"},"geometry":{"type":"Point","coordinates":[-0.150417212595815,51.840097025469028,127.4068624764639]}},
{"type":"Feature","properties":{"fid":85,"id":"WT257","Name":"Epping Green Water Tower","name1_text":"Little Berkhamsted","name1":"Epping Green","Name_2":"Little Berkhamsted CP","Name_3":"Hertfordshire"},"geometry":{"type":"Point","coordinates":[-0.128750369035237,51.744372773760936,125.445490333699595]}},
{"type":"Feature","properties":{"fid":86,"id":"WT258","Name":"Bengeo Water Tower","name1_text":"Hertford","name1":"Bengeo","Name_2":"Hertford CP","Name_3":"Hertfordshire"},"geometry":{"type":"Point","coordinates":[-0.085910786571609,51.807038642504523,70.57308360176782]}},
{"type":"Feature","properties":{"fid":87,"id":"WT259","Name":"Throcking Water Tower","name1_text":"Cottered","name1":"Throcking","Name_2":"Cottered CP","Name_3":"Hertfordshire"},"geometry":{"type":"Point","coordinates":[-0.060943715997981,51.953279453312291,151.865700896507292]}},
{"type":"Feature","properties":{"fid":88,"id":"WT260","Name":"Tonwell Water Tower","name1_text":"Thundridge and Wadesmill","name1":"Tonwell","Name_2":"Bengeo Rural CP","Name_3":"Hertfordshire"},"geometry":{"type":"Point","coordinates":[-0.063647524282886,51.838964881610742,78.991875358310423]}},
{"type":"Feature","properties":{"fid":89,"id":"WT261","Name":"Hertford Heath Water Tower","name1_text":"Hertford Heath","name1":"Hertford Heath","Name_2":"Hertford Heath CP","Name_3":"Hertfordshire"},"geometry":{"type":"Point","coordinates":[-0.040556241343948,51.780729145593483,100.782603013106495]}},
{"type":"Feature","properties":{"fid":90,"id":"WT262","Name":"Hoddesdon Water Tower","name1_text":"Hertford Heath","name1":"Goose Green","Name_2":null,"Name_3":"Hertfordshire"},"geometry":{"type":"Point","coordinates":[-0.043456078308192,51.763943492928497,76.536200600207536]}},
{"type":"Feature","properties":{"fid":91,"id":"WT263","Name":"Musley Hill Water Tower","name1_text":"Ware","name1":"Ware","Name_2":"Ware CP","Name_3":"Hertfordshire"},"geometry":{"type":"Point","coordinates":[-0.023690803831858,51.81709511798045,66.984630191125774]}},
{"type":"Feature","properties":{"fid":92,"id":"WT264","Name":"Old Hall Green Water Tower","name1_text":"Old Hall Green","name1":"Old Hall Green","Name_2":"Standon CP","Name_3":"Hertfordshire"},"geometry":{"type":"Point","coordinates":[-0.017110218319563,51.883682403833589,125.109458105854799]}},
{"type":"Feature","properties":{"fid":93,"id":"WT265","Name":"Silver Lays Water Tower","name1_text":"Bishop's Stortford","name1":"Level's Green","Name_2":"Bishop's Stortford CP","Name_3":"Hertfordshire"},"geometry":{"type":"Point","coordinates":[0.139856023541543,51.878489451111093,107.201324464429106]}},
{"type":"Feature","properties":{"fid":94,"id":"WT266","Name":"Shenley Water Tower","name1_text":"Shenley","name1":"Shenleybury","Name_2":"Shenley CP","Name_3":"Hertfordshire"},"geometry":{"type":"Point","coordinates":[-0.291402089038113,51.695324895251048,127.818856500767694]}},
{"type":"Feature","properties":{"fid":95,"id":"WT267","Name":"Napsbury Water Tower","name1_text":"London Colney","name1":"Napsbury Park","Name_2":"London Colney CP","Name_3":"Hertfordshire"},"geometry":{"type":"Point","coordinates":[-0.311804743151386,51.722083904608994,108.628960629553305]}},
{"type":"Feature","properties":{"fid":96,"id":"WT515","Name":"Ashby-de-la-Zouch Water Tower","name1_text":"Ashby-de-la-Zouch","name1":"Ashby-de-la-Zouch","Name_2":"Ashby de la Zouch CP","Name_3":"Leicestershire"},"geometry":{"type":"Point","coordinates":[-1.479149149357601,52.745966286128137,160.10011618132711]}},
{"type":"Feature","properties":{"fid":97,"id":"WT516","Name":"Wymeswold Airfield Water Tower","name1_text":"Burton on the Wolds","name1":"Burton on the Wolds","Name_2":"Prestwold CP","Name_3":"Leicestershire"},"geometry":{"type":"Point","coordinates":[-1.123235041600016,52.794143555144132,86.886906834543794]}},
{"type":"Feature","properties":{"fid":98,"id":"WT517","Name":"Somerby Water Tower","name1_text":"Somerby","name1":"Somerby","Name_2":"Somerby CP","Name_3":"Leicestershire"},"geometry":{"type":"Point","coordinates":[-0.847756811787592,52.683173516179139,184.759706078163191]}},
{"type":"Feature","properties":{"fid":99,"id":"WT518","Name":"Waltham-on-the-Wold Water Tower","name1_text":"Waltham on the Wolds","name1":"Waltham on the Wolds","Name_2":"Waltham on the Wolds and Thorpe Arnold CP","Name_3":"Leicestershire"},"geometry":{"type":"Point","coordinates":[-0.802923599712049,52.812431727994891,178.057521551148]}},
{"type":"Feature","properties":{"fid":100,"id":"WT519","Name":"Wymondham Water Tower","name1_text":"Wymondham (Melton)","name1":"Edmondthorpe","Name_2":"Wymondham CP","Name_3":"Leicestershire"},"geometry":{"type":"Point","coordinates":[-0.718423639688817,52.758356506733122,130.744261415967287]}},
{"type":"Feature","properties":{"fid":101,"id":"WT520","Name":"Buckminster Water Tower","name1_text":"Wymondham (Melton)","name1":"Buckminster","Name_2":"Buckminster CP","Name_3":"Leicestershire"},"geometry":{"type":"Point","coordinates":[-0.693624899506314,52.796936281118249,161.259841118803905]}},
{"type":"Feature","properties":{"fid":102,"id":"WT521","Name":"Buckminster Ashes Water Tower","name1_text":"Colsterworth","name1":"Buckminster","Name_2":"Buckminster CP","Name_3":"Leicestershire"},"geometry":{"type":"Point","coordinates":[-0.68199565851561,52.803972365029487,153.607340224760804]}},
{"type":"Feature","properties":{"fid":103,"id":"WT522","Name":"Holwell Water Tower","name1_text":"Long Clawson","name1":"Holwell","Name_2":"Ab Kettleby CP","Name_3":"Leicestershire"},"geometry":{"type":"Point","coordinates":[-0.90716469568017,52.812792870199907,152.088808292528]}},
{"type":"Feature","properties":{"fid":104,"id":"WT523","Name":"Austrey Water Tower","name1_text":"Appleby Magna","name1":"Appleby Parva","Name_2":"Twycross CP","Name_3":"Leicestershire"},"geometry":{"type":"Point","coordinates":[-1.550620324273341,52.667195251965254,149.757475098000413]}},
{"type":"Feature","properties":{"fid":105,"id":"WT432","Name":"Barby Water Tower 1","name1_text":"Barby","name1":"Barby","Name_2":"Barby CP","Name_3":"Northamptonshire"},"geometry":{"type":"Point","coordinates":[-1.205240010941192,52.321538342876522,168.641888630905413]}},
{"type":"Feature","properties":{"fid":106,"id":"WT433","Name":"Barby Water Tower 2","name1_text":"Onley","name1":"Onley","Name_2":"Barby CP","Name_3":"Northamptonshire"},"geometry":{"type":"Point","coordinates":[-1.241051116160431,52.330185240565037,94.923478682941465]}},
{"type":"Feature","properties":{"fid":107,"id":"WT434","Name":"Preston Capes Water Tower","name1_text":"Woodford Halse","name1":"Preston Capes","Name_2":"Preston Capes CP","Name_3":"Northamptonshire"},"geometry":{"type":"Point","coordinates":[-1.171691965596,52.185849308885217,189.099495248637396]}},
{"type":"Feature","properties":{"fid":108,"id":"WT435","Name":"Halse Water Tower","name1_text":"Brackley","name1":"Halse","Name_2":"Greatworth and Halse CP","Name_3":"Northamptonshire"},"geometry":{"type":"Point","coordinates":[-1.168596524485006,52.062441481718032,161.096953709380699]}},
{"type":"Feature","properties":{"fid":109,"id":"WT436","Name":"Everdon Stubbs Water Tower","name1_text":"Weedon Bec","name1":"Farthingstone","Name_2":"Farthingstone CP","Name_3":"Northamptonshire"},"geometry":{"type":"Point","coordinates":[-1.105588204011463,52.20236142153226,164.4062011132186]}},
{"type":"Feature","properties":{"fid":110,"id":"WT437","Name":"West Haddon Water Tower","name1_text":"West Haddon","name1":"West Haddon","Name_2":"West Haddon CP","Name_3":"Northamptonshire"},"geometry":{"type":"Point","coordinates":[-1.06784850950939,52.339022618840112,187.335541581916203]}},
{"type":"Feature","properties":{"fid":111,"id":"WT438","Name":"Flore Water Tower","name1_text":"Flore","name1":"Flore","Name_2":"Flore CP","Name_3":"Northamptonshire"},"geometry":{"type":"Point","coordinates":[-1.067473380412814,52.239286247864193,118.654347185530895]}},
{"type":"Feature","properties":{"fid":112,"id":"WT439","Name":"Whittlebury Water Tower","name1_text":"Whittlebury","name1":"Whittlebury","Name_2":"Whittlebury CP","Name_3":"Northamptonshire"},"geometry":{"type":"Point","coordinates":[-0.9952748953966,52.084761749148463,159.293973949144004]}},
{"type":"Feature","properties":{"fid":113,"id":"WT440","Name":"Nobottle Water Tower","name1_text":"Harpole","name1":"Harpole","Name_2":"Harpole CP","Name_3":"Northamptonshire"},"geometry":{"type":"Point","coordinates":[-0.989389442269577,52.255286951820203,121.339676380540496]}},
{"type":"Feature","properties":{"fid":114,"id":"WT441","Name":"Paulerspury Water Tower","name1_text":"Towcester","name1":"Pury End","Name_2":"Paulerspury CP","Name_3":"Northamptonshire"},"geometry":{"type":"Point","coordinates":[-0.971880949005001,52.101436252545348,129.109190727452699]}},
{"type":"Feature","properties":{"fid":115,"id":"WT442","Name":"Brixworth Water Tower","name1_text":"Brixworth","name1":"Brixworth","Name_2":"Brixworth CP","Name_3":"Northamptonshire"},"geometry":{"type":"Point","coordinates":[-0.903289666622209,52.325188474760758,134.007653454560398]}},
{"type":"Feature","properties":{"fid":116,"id":"WT443","Name":"Yardley Gobion Water Tower","name1_text":"Yardley Gobion","name1":"Moor End","Name_2":"Yardley Gobion CP","Name_3":"Northamptonshire"},"geometry":{"type":"Point","coordinates":[-0.892933801805239,52.097429767939737,101.690253829172093]}},
{"type":"Feature","properties":{"fid":117,"id":"WT444","Name":"Roade Water Tower 1","name1_text":"Roade","name1":"Roade","Name_2":"Roade CP","Name_3":"Northamptonshire"},"geometry":{"type":"Point","coordinates":[-0.890575817280013,52.152714195390949,108.247852258753099]}},
{"type":"Feature","properties":{"fid":118,"id":"WT445","Name":"Roade Water Tower 2","name1_text":"Roade","name1":"Roade","Name_2":"Roade CP","Name_3":"Northamptonshire"},"geometry":{"type":"Point","coordinates":[-0.888847883426261,52.159044280461409,116.369146161914998]}},
{"type":"Feature","properties":{"fid":119,"id":"WT446","Name":"Boughton Green Road Water Tower","name1_text":"Northampton","name1":"Sunnyside","Name_2":"Kingsthorpe CP","Name_3":"Northamptonshire"},"geometry":{"type":"Point","coordinates":[-0.886368611037133,52.274587266279248,148.549040064518294]}},
{"type":"Feature","properties":{"fid":120,"id":"WT447","Name":"Hardingstone Water Tower","name1_text":"Northampton","name1":"Hardingstone","Name_2":"Hardingstone CP","Name_3":"Northamptonshire"},"geometry":{"type":"Point","coordinates":[-0.88185620045596,52.209929392074763,128.656085287746492]}},
{"type":"Feature","properties":{"fid":121,"id":"WT448","Name":"Dingley Water Tower","name1_text":"Braybrooke","name1":"Dingley","Name_2":"Brampton Ash CP","Name_3":"Northamptonshire"},"geometry":{"type":"Point","coordinates":[-0.862251320897255,52.473253528992068,154.652844856240193]}},
{"type":"Feature","properties":{"fid":122,"id":"WT449","Name":"Desborough Water Tower","name1_text":"Desborough","name1":"Desborough","Name_2":"Desborough CP","Name_3":"Northamptonshire"},"geometry":{"type":"Point","coordinates":[-0.827698716966997,52.445793746838362,142.002136499903912]}},
{"type":"Feature","properties":{"fid":123,"id":"WT450","Name":"Brafield-on-the-Green Water Tower","name1_text":"Brafield-on-the-Green","name1":"Brafield-on-the-Green","Name_2":"Brafield on the Green CP","Name_3":"Northamptonshire"},"geometry":{"type":"Point","coordinates":[-0.801466733761111,52.218901415078527,106.586718778494301]}},
{"type":"Feature","properties":{"fid":124,"id":"WT451","Name":"Rothwell Water Tower","name1_text":"Rothwell (North Northamptonshire)","name1":"Rothwell","Name_2":"Rothwell CP","Name_3":"Northamptonshire"},"geometry":{"type":"Point","coordinates":[-0.794165248405715,52.42523955499319,132.634161160282304]}},
{"type":"Feature","properties":{"fid":125,"id":"WT452","Name":"Ecton Water Tower","name1_text":"Ecton","name1":"Ecton","Name_2":"Ecton CP","Name_3":"Northamptonshire"},"geometry":{"type":"Point","coordinates":[-0.792405842281624,52.269727821726853,104.679419515275598]}},
{"type":"Feature","properties":{"fid":126,"id":"WT453","Name":"Mears Ashby Water Tower","name1_text":"Mears Ashby","name1":"Mears Ashby","Name_2":"Mears Ashby CP","Name_3":"Northamptonshire"},"geometry":{"type":"Point","coordinates":[-0.764197969137422,52.30017810885078,117.459777586421097]}},
{"type":"Feature","properties":{"fid":127,"id":"WT454","Name":"Corby Twin Water Towers","name1_text":"Corby","name1":"Great Oakley","Name_2":"Middleton CP","Name_3":"Northamptonshire"},"geometry":{"type":"Point","coordinates":[-0.733742311270688,52.488437029651998,133.31263789603679]}},
{"type":"Feature","properties":{"fid":128,"id":"WT455","Name":"Earls Barton Water Tower","name1_text":"Earls Barton","name1":"Earls Barton","Name_2":"Earls Barton CP","Name_3":"Northamptonshire"},"geometry":{"type":"Point","coordinates":[-0.738736587613312,52.270393345575627,105.571426027535296]}},
{"type":"Feature","properties":{"fid":129,"id":"WT456","Name":"Rockingham Water Tower","name1_text":"Corby","name1":"Rockingham","Name_2":"Corby CP","Name_3":"Northamptonshire"},"geometry":{"type":"Point","coordinates":[-0.71650440341551,52.510496694593783,130.576699612134092]}},
{"type":"Feature","properties":{"fid":130,"id":"WT457","Name":"Wollaston Water Tower","name1_text":"Wollaston","name1":"Wollaston","Name_2":"Wollaston CP","Name_3":"Northamptonshire"},"geometry":{"type":"Point","coordinates":[-0.660086276982955,52.258848104646262,93.676343292884027]}},
{"type":"Feature","properties":{"fid":131,"id":"WT458","Name":"Finedon Water Tower","name1_text":"Finedon","name1":"Finedon","Name_2":"Finedon CP","Name_3":"Northamptonshire"},"geometry":{"type":"Point","coordinates":[-0.643909905708105,52.33655189243693,90.573679890453178]}},
{"type":"Feature","properties":{"fid":132,"id":"WT459","Name":"Brigstock Water Tower","name1_text":"Weldon","name1":"Brigstock","Name_2":"Brigstock CP","Name_3":"Northamptonshire"},"geometry":{"type":"Point","coordinates":[-0.603481095257965,52.481338943531362,108.865841527605497]}},
{"type":"Feature","properties":{"fid":133,"id":"WT460","Name":"Woodford Water Tower","name1_text":"Woodford (North Northamptonshire)","name1":"Woodford","Name_2":"Woodford CP","Name_3":"Northamptonshire"},"geometry":{"type":"Point","coordinates":[-0.591218303872684,52.380273432336658,81.332985394458177]}},
{"type":"Feature","properties":{"fid":134,"id":"WT461","Name":"Collyweston Water Tower","name1_text":"Collyweston","name1":"Collyweston","Name_2":"Collyweston CP","Name_3":"Northamptonshire"},"geometry":{"type":"Point","coordinates":[-0.524598013324925,52.610298993135594,96.900622285183047]}},
{"type":"Feature","properties":{"fid":135,"id":"WT462","Name":"Denford Ash Water Tower","name1_text":"Raunds","name1":"Denford","Name_2":"Denford CP","Name_3":"Northamptonshire"},"geometry":{"type":"Point","coordinates":[-0.517877434654104,52.370343931835187,76.951237339409445]}},
{"type":"Feature","properties":{"fid":136,"id":"WT463","Name":"Southwick Water Tower","name1_text":"Glapthorn","name1":"Southwick","Name_2":"Southwick CP","Name_3":"Northamptonshire"},"geometry":{"type":"Point","coordinates":[-0.493491136223243,52.510823393896487,70.65393473572901]}},
{"type":"Feature","properties":{"fid":137,"id":"WT464","Name":"Abington Water Tower","name1_text":"Northampton","name1":"Abington","Name_2":"Northampton CP","Name_3":"Northamptonshire"},"geometry":{"type":"Point","coordinates":[-0.862445000841967,52.249359895305282,79.352937865643497]}},
{"type":"Feature","properties":{"fid":138,"id":"WT465","Name":"Castle Ashby Water Tower","name1_text":"Yardley Hastings","name1":"Castle Ashby","Name_2":"Castle Ashby CP","Name_3":"Northamptonshire"},"geometry":{"type":"Point","coordinates":[-0.73899238810622,52.224936808425291,86.91955056214951]}},
{"type":"Feature","properties":{"fid":139,"id":"WT466","Name":"St. Crispin Hospital Water Tower","name1_text":"Northampton","name1":"Duston","Name_2":"Upton CP","Name_3":"Northamptonshire"},"geometry":{"type":"Point","coordinates":[-0.958185860198203,52.243274238501598,155.960528951914199]}},
{"type":"Feature","properties":{"fid":140,"id":"WT468","Name":"Barnwell Water Tower","name1_text":"Polebrook","name1":"Thurning","Name_2":"Barnwell CP","Name_3":"Northamptonshire"},"geometry":{"type":"Point","coordinates":[-0.417763128147518,52.449875427158673,71.886968800208393]}},
{"type":"Feature","properties":{"fid":141,"id":"WT511","Name":"Swingate Water Tower","name1_text":"Swingate","name1":"Swingate","Name_2":"Kimberley CP","Name_3":"Nottinghamshire"},"geometry":{"type":"Point","coordinates":[-1.256803128054056,52.989670976000411,134.433429432005113]}},
{"type":"Feature","properties":{"fid":142,"id":"WT512","Name":"Gringley Water Tower","name1_text":"Gringley on the Hill","name1":"Gringley on the Hill","Name_2":"Gringley on the Hill CP","Name_3":"Nottinghamshire"},"geometry":{"type":"Point","coordinates":[-0.883525365125143,53.408102536087839,75.670480807216265]}},
{"type":"Feature","properties":{"fid":143,"id":"WT513","Name":"Fernwood Water Tower","name1_text":"Fernwood","name1":"Fernwood","Name_2":"Fernwood CP","Name_3":"Nottinghamshire"},"geometry":{"type":"Point","coordinates":[-0.771203207922594,53.048374596682599,22.476100938713731]}},
{"type":"Feature","properties":{"fid":144,"id":"WT514","Name":"Rufford Abbey Water Tower","name1_text":"Rufford (Newark and Sherwood)","name1":"Rufford","Name_2":"Rufford CP","Name_3":"Nottinghamshire"},"geometry":{"type":"Point","coordinates":[-1.035937310374961,53.175416577809038,54.148559788844622]}},
{"type":"Feature","properties":{"fid":145,"id":"WT199","Name":"Carterton Water Tower","name1_text":"Carterton","name1":"Carterton","Name_2":"Carterton CP","Name_3":"Oxfordshire"},"geometry":{"type":"Point","coordinates":[-1.593705613112134,51.752090552061119,92.079627399121847]}},
{"type":"Feature","properties":{"fid":146,"id":"WT200","Name":"Chipping Norton Water Tower","name1_text":"Chipping Norton","name1":"Chipping Norton","Name_2":"Chipping Norton CP","Name_3":"Oxfordshire"},"geometry":{"type":"Point","coordinates":[-1.537661409324916,51.94101162000932,226.143769174635707]}},
{"type":"Feature","properties":{"fid":147,"id":"WT201","Name":"Banbury Water Tower","name1_text":"Banbury","name1":"Calthorpe","Name_2":"Banbury CP","Name_3":"Oxfordshire"},"geometry":{"type":"Point","coordinates":[-1.33703401404009,52.052690649872289,131.167705982119088]}},
{"type":"Feature","properties":{"fid":148,"id":"WT202","Name":"Bucknell Water Tower","name1_text":"Bucknell (Cherwell)","name1":"Bucknell","Name_2":"Bucknell CP","Name_3":"Oxfordshire"},"geometry":{"type":"Point","coordinates":[-1.203690740853662,51.919035953856493,105.376800951585807]}},
{"type":"Feature","properties":{"fid":149,"id":"WT203","Name":"Milton Common Water Tower","name1_text":"Milton Common","name1":"Milton Common","Name_2":"Tiddington-with-Albury CP","Name_3":"Oxfordshire"},"geometry":{"type":"Point","coordinates":[-1.055898173242817,51.726127688204691,103.402126318218194]}},
{"type":"Feature","properties":{"fid":150,"id":"WT204","Name":"Berinsfield Water Tower","name1_text":"Berinsfield","name1":"Berinsfield","Name_2":"Berinsfield CP","Name_3":"Oxfordshire"},"geometry":{"type":"Point","coordinates":[-1.170730335994522,51.666142598134257,58.162236622340203]}},
{"type":"Feature","properties":{"fid":151,"id":"WT205","Name":"Wallingford Water Tower","name1_text":"Wallingford","name1":"Wallingford","Name_2":"Wallingford CP","Name_3":"Oxfordshire"},"geometry":{"type":"Point","coordinates":[-1.133367618017396,51.60174676079447,49.988236818624031]}},
{"type":"Feature","properties":{"fid":152,"id":"WT206","Name":"Portobello Water Tower","name1_text":"Lewknor","name1":"Lewknor","Name_2":"Lewknor CP","Name_3":"Oxfordshire"},"geometry":{"type":"Point","coordinates":[-0.954120514778022,51.652568117259747,252.739431564473108]}},
{"type":"Feature","properties":{"fid":153,"id":"WT207","Name":"Bignell Park Water Tower","name1_text":"Chesterton","name1":"Chesterton","Name_2":"Chesterton CP","Name_3":"Oxfordshire"},"geometry":{"type":"Point","coordinates":[-1.200136956252347,51.896220526641933,85.47376161463022]}},
{"type":"Feature","properties":{"fid":154,"id":"WT208","Name":"Bicester Water Tower","name1_text":"Caversfield","name1":"Caversfield","Name_2":"Caversfield CP","Name_3":"Oxfordshire"},"geometry":{"type":"Point","coordinates":[-1.147526215347057,51.917073171649527,83.773855063453809]}},
{"type":"Feature","properties":{"fid":155,"id":"WT209","Name":"Wantage Water Tower","name1_text":"Wantage","name1":"Belmont","Name_2":"Wantage CP","Name_3":"Oxfordshire"},"geometry":{"type":"Point","coordinates":[-1.434595691865107,51.59162070596642,104.191262426826697]}},
{"type":"Feature","properties":{"fid":156,"id":"WT210","Name":"Didcot Steam Railway Water Tower","name1_text":"Didcot","name1":"Didcot","Name_2":"Didcot CP","Name_3":"Oxfordshire"},"geometry":{"type":"Point","coordinates":[-1.24370590187894,51.612643337362307,56.166820753670542]}},
{"type":"Feature","properties":{"fid":157,"id":"WT469","Name":"Wilcott Water Tower","name1_text":"Wilcott","name1":"Wilcott","Name_2":"Great Ness CP","Name_3":"Shropshire"},"geometry":{"type":"Point","coordinates":[-2.922913388644307,52.763915421970971,84.075341742922973]}},
{"type":"Feature","properties":{"fid":158,"id":"WT470","Name":"Shelton Water Tower","name1_text":"Shrewsbury","name1":"Shelton","Name_2":"Shrewsbury CP","Name_3":"Shropshire"},"geometry":{"type":"Point","coordinates":[-2.79337433562499,52.716772296349731,92.916786162419626]}},
{"type":"Feature","properties":{"fid":159,"id":"WT471","Name":"Harlescott Water Tower","name1_text":"Shrewsbury","name1":"Mount Pleasant","Name_2":"Shrewsbury CP","Name_3":"Shropshire"},"geometry":{"type":"Point","coordinates":[-2.741800043303667,52.735572105075171,75.02977200781406]}},
{"type":"Feature","properties":{"fid":160,"id":"WT472","Name":"Market Drayton Water Tower","name1_text":"Market Drayton","name1":"Greenfields","Name_2":"Market Drayton CP","Name_3":"Shropshire"},"geometry":{"type":"Point","coordinates":[-2.493375453066322,52.905086308209981,102.858229543577494]}},
{"type":"Feature","properties":{"fid":161,"id":"WT473","Name":"Cheswardine Hall Water Tower","name1_text":"Chipnall","name1":"Chipnall","Name_2":"Cheswardine CP","Name_3":"Shropshire"},"geometry":{"type":"Point","coordinates":[-2.409924382835501,52.87396646040898,163.385778445406686]}},
{"type":"Feature","properties":{"fid":162,"id":"WT474","Name":"Ludlow Water Tower","name1_text":"Ludlow","name1":"Rockgreen","Name_2":"Ludlow CP","Name_3":"Shropshire"},"geometry":{"type":"Point","coordinates":[-2.703545067770351,52.373242546848289,131.725491102777511]}},
{"type":"Feature","properties":{"fid":163,"id":"WT475","Name":"Netchwood Water Tower","name1_text":"Ditton Priors","name1":"Upper Netchwood","Name_2":"Ditton Priors CP","Name_3":"Shropshire"},"geometry":{"type":"Point","coordinates":[-2.57361965701405,52.524858650029081,247.205628160386709]}},
{"type":"Feature","properties":{"fid":164,"id":"WT476","Name":"Tasley Water Tower","name1_text":"Bridgnorth","name1":"Tasley","Name_2":"Tasley CP","Name_3":"Shropshire"},"geometry":{"type":"Point","coordinates":[-2.449192427484423,52.543733802980277,123.325061148589398]}},
{"type":"Feature","properties":{"fid":165,"id":"WT477","Name":"Ditton Priors Water Towers","name1_text":"Ditton Priors","name1":"Ditton Priors","Name_2":"Ditton Priors CP","Name_3":"Shropshire"},"geometry":{"type":"Point","coordinates":[-2.572610214230748,52.498998587361697,214.843338097182198]}},
{"type":"Feature","properties":{"fid":166,"id":"WT478","Name":"Old Woodhouses Water Tower","name1_text":"Whitchurch (Shropshire)","name1":"Old Woodhouses","Name_2":"Whitchurch Rural CP","Name_3":"Shropshire"},"geometry":{"type":"Point","coordinates":[-2.628661359711106,52.978870983727283,96.826413090966312]}},
{"type":"Feature","properties":{"fid":167,"id":"WT479","Name":"Kinnerley Water Tower","name1_text":"West Felton","name1":"Argoed","Name_2":"Kinnerley CP","Name_3":"Shropshire"},"geometry":{"type":"Point","coordinates":[-2.996155753553837,52.782729764576921,67.578526800960532]}},
{"type":"Feature","properties":{"fid":168,"id":"WT480","Name":"Pen-y-Park Water Tower","name1_text":"West Felton","name1":"Osbaston","Name_2":"Knockin CP","Name_3":"Shropshire"},"geometry":{"type":"Point","coordinates":[-3.011938605207768,52.788792091689359,67.179917059401134]}},
{"type":"Feature","properties":{"fid":169,"id":"WT481","Name":"Farm Hall Water Tower","name1_text":"Crewgreen","name1":"Argoed","Name_2":"Kinnerley CP","Name_3":"Shropshire"},"geometry":{"type":"Point","coordinates":[-2.985661352504811,52.772097514710083,63.144950733714133]}},
{"type":"Feature","properties":{"fid":170,"id":"WT482","Name":"Roden Water Tower","name1_text":"High Ercall","name1":"Roden","Name_2":"Ercall Magna CP","Name_3":"Shropshire"},"geometry":{"type":"Point","coordinates":[-2.632626963568758,52.744971913524807,63.111884437899981]}},
{"type":"Feature","properties":{"fid":171,"id":"WT483","Name":"Highley Station Water Tower","name1_text":"Highley","name1":"Stanley","Name_2":"Highley CP","Name_3":"Shropshire"},"geometry":{"type":"Point","coordinates":[-2.370648990830335,52.444146118730529,47.314023616677318]}},
{"type":"Feature","properties":{"fid":172,"id":"WT484","Name":"Bidgnorth Water Tower","name1_text":"Bridgnorth","name1":"Castle Hill","Name_2":"Bridgnorth CP","Name_3":"Shropshire"},"geometry":{"type":"Point","coordinates":[-2.421759459923123,52.530925659633887,54.726305014155002]}},
{"type":"Feature","properties":{"fid":173,"id":"WT594","Name":"Armthorpe Water Tower","name1_text":"Doncaster","name1":"Wheatley Hills","Name_2":null,"Name_3":"South Yorkshire"},"geometry":{"type":"Point","coordinates":[-1.085423436080213,53.534922470535847,23.300435994914761]}},
{"type":"Feature","properties":{"fid":174,"id":"WT595","Name":"Thorne Water Tower","name1_text":"Thorne","name1":"Thorne","Name_2":"Thorne CP","Name_3":"South Yorkshire"},"geometry":{"type":"Point","coordinates":[-0.959359489852883,53.603500629688433,5.959444395781004]}},
{"type":"Feature","properties":{"fid":175,"id":"WT596","Name":"Doncaster Railway Works Water Tower","name1_text":"Doncaster","name1":"Doncaster","Name_2":null,"Name_3":"South Yorkshire"},"geometry":{"type":"Point","coordinates":[-1.142162267114782,53.524718344223643,25.628762804129689]}},
{"type":"Feature","properties":{"fid":176,"id":"WT597","Name":"Backmoor Water Tower","name1_text":"Sheffield","name1":"Backmoor","Name_2":null,"Name_3":"South Yorkshire"},"geometry":{"type":"Point","coordinates":[-1.453751628809349,53.338349742248397,255.758422917937708]}},
{"type":"Feature","properties":{"fid":177,"id":"WT598","Name":"Stones Cannon Brewery Water Tower","name1_text":"Sheffield","name1":"Neepsend","Name_2":null,"Name_3":"South Yorkshire"},"geometry":{"type":"Point","coordinates":[-1.477081314480823,53.393510370580117,69.735248810537342]}},
{"type":"Feature","properties":{"fid":178,"id":"WT485","Name":"Ashley Heath Water Tower","name1_text":"Loggerheads","name1":"Ashley Heath","Name_2":"Loggerheads CP","Name_3":"Staffordshire"},"geometry":{"type":"Point","coordinates":[-2.379589670117812,52.918529384857322,236.329763274287188]}},
{"type":"Feature","properties":{"fid":179,"id":"WT486","Name":"Hanchurch Water Tower","name1_text":"Newcastle-under-Lyme","name1":"Hanchurch","Name_2":"Swynnerton CP","Name_3":"Staffordshire"},"geometry":{"type":"Point","coordinates":[-2.239913824756945,52.954859398936193,238.69256116620079]}},
{"type":"Feature","properties":{"fid":180,"id":"WT487","Name":"Swynnerton Water Tower","name1_text":"Swynnerton","name1":"Swynnerton","Name_2":"Swynnerton CP","Name_3":"Staffordshire"},"geometry":{"type":"Point","coordinates":[-2.221933060262016,52.920825289133248,203.693107333236298]}},
{"type":"Feature","properties":{"fid":181,"id":"WT488","Name":"Meir Heath Water Tower","name1_text":"Stoke-on-Trent","name1":"Meir Heath","Name_2":"Fulford CP","Name_3":"Staffordshire"},"geometry":{"type":"Point","coordinates":[-2.108924907442815,52.958322673673919,269.110655154756898]}},
{"type":"Feature","properties":{"fid":182,"id":"WT489","Name":"Longsdon Water Tower","name1_text":"Longsdon","name1":"Longsdon","Name_2":"Longsdon CP","Name_3":"Staffordshire"},"geometry":{"type":"Point","coordinates":[-2.071142152688019,53.093182990196169,242.450935555858507]}},
{"type":"Feature","properties":{"fid":183,"id":"WT490","Name":"Essington Water Tower","name1_text":"Essington","name1":"Essington","Name_2":"Essington CP","Name_3":"Staffordshire"},"geometry":{"type":"Point","coordinates":[-2.060944454343179,52.628714292987233,199.524391909050109]}},
{"type":"Feature","properties":{"fid":184,"id":"WT491","Name":"Pye Green Water Tower","name1_text":"Cannock","name1":"Pye Green","Name_2":"Hednesford CP","Name_3":"Staffordshire"},"geometry":{"type":"Point","coordinates":[-2.017130494496183,52.727706935231623,246.906241881541689]}},
{"type":"Feature","properties":{"fid":185,"id":"WT492","Name":"Hanbury Water Tower","name1_text":"Draycott in the Clay","name1":"Hanbury","Name_2":"Hanbury CP","Name_3":"Staffordshire"},"geometry":{"type":"Point","coordinates":[-1.744836961651249,52.848060977016637,149.755096619940588]}},
{"type":"Feature","properties":{"fid":186,"id":"WT493","Name":"Rolleston-on-Dove Water Tower","name1_text":"Rolleston on Dove","name1":"Alder Moor","Name_2":"Rolleston on Dove CP","Name_3":"Staffordshire"},"geometry":{"type":"Point","coordinates":[-1.663375900172313,52.848935303267638,87.022431475223669]}},
{"type":"Feature","properties":{"fid":187,"id":"WT494","Name":"Winshill Water Tower","name1_text":"Burton upon Trent","name1":"Winshill","Name_2":"Winshill CP","Name_3":"Staffordshire"},"geometry":{"type":"Point","coordinates":[-1.607087936298529,52.801503967091428,152.487755161776505]}},
{"type":"Feature","properties":{"fid":188,"id":"WT495","Name":"Cheddleton Water Tower","name1_text":"Cheddleton","name1":"Cheddleton","Name_2":"Cheddleton CP","Name_3":"Staffordshire"},"geometry":{"type":"Point","coordinates":[-2.040724655297393,53.07928088169762,204.703834248488789]}},
{"type":"Feature","properties":{"fid":189,"id":"WT496","Name":"Washlands Water Tower","name1_text":"Burton upon Trent","name1":"Bond End","Name_2":"Burton CP","Name_3":"Staffordshire"},"geometry":{"type":"Point","coordinates":[-1.626927613686564,52.803389565204633,79.904233367409105]}},
{"type":"Feature","properties":{"fid":190,"id":"WT497","Name":"Plough Maltings Water Tower","name1_text":"Burton upon Trent","name1":"Little Burton","Name_2":"Burton CP","Name_3":"Staffordshire"},"geometry":{"type":"Point","coordinates":[-1.631304212125914,52.808275614261277,61.858940351565877]}},
{"type":"Feature","properties":{"fid":191,"id":"WT498","Name":"Burton Railway Water Tower","name1_text":"Burton upon Trent","name1":"Little Burton","Name_2":"Horninglow and Eton CP","Name_3":"Staffordshire"},"geometry":{"type":"Point","coordinates":[-1.632565413298971,52.81505985871641,60.698234810941507]}},
{"type":"Feature","properties":{"fid":192,"id":"WT499","Name":"Yarnfield Park Water Tower","name1_text":"Yarnfield","name1":"Yarnfield","Name_2":"Yarnfield and Cold Meece CP","Name_3":"Staffordshire"},"geometry":{"type":"Point","coordinates":[-2.198550622136777,52.896476722635057,134.696636826409389]}},
{"type":"Feature","properties":{"fid":193,"id":"WT500","Name":"Molson Coors Water Tower","name1_text":"Burton upon Trent","name1":"Little Burton","Name_2":"Burton CP","Name_3":"Staffordshire"},"geometry":{"type":"Point","coordinates":[-1.637515125262119,52.806428635768427,73.214479727923376]}},
{"type":"Feature","properties":{"fid":194,"id":"WT501","Name":"Alleynes Academy Water Tower","name1_text":"Stone (Stafford)","name1":"Oultoncross","Name_2":"Stone CP","Name_3":"Staffordshire"},"geometry":{"type":"Point","coordinates":[-2.140696369110247,52.911194281276273,143.622045670159309]}},
{"type":"Feature","properties":{"fid":195,"id":"WT099","Name":"Hale Water Tower","name1_text":"Weybourne (Waverley)","name1":"Hog Hatch","Name_2":"Farnham CP","Name_3":"Surrey"},"geometry":{"type":"Point","coordinates":[-0.814888712669752,51.235816087328793,187.126055587760391]}},
{"type":"Feature","properties":{"fid":196,"id":"WT100","Name":"Blackhill Water Tower","name1_text":"Bagshot","name1":"Bagshot","Name_2":"Windlesham CP","Name_3":"Surrey"},"geometry":{"type":"Point","coordinates":[-0.702592760150966,51.349580892987177,128.144846886566398]}},
{"type":"Feature","properties":{"fid":197,"id":"WT101","Name":"Priorsfield Water Tower","name1_text":"Farncombe","name1":"Hurtmore","Name_2":"Compton CP","Name_3":"Surrey"},"geometry":{"type":"Point","coordinates":[-0.643617970258561,51.210674981830152,113.481338335980396]}},
{"type":"Feature","properties":{"fid":198,"id":"WT102","Name":"Godalming Water Tower","name1_text":"Farncombe","name1":"Frith Hill","Name_2":"Godalming CP","Name_3":"Surrey"},"geometry":{"type":"Point","coordinates":[-0.614210631655393,51.193168899595761,91.077564482424307]}},
{"type":"Feature","properties":{"fid":199,"id":"WT103","Name":"Munstead Water Tower","name1_text":"Munstead Heath","name1":"Munstead Heath","Name_2":"Munstead and Tuesley CP","Name_3":"Surrey"},"geometry":{"type":"Point","coordinates":[-0.58926529114933,51.17546674778184,128.689158222505597]}},
{"type":"Feature","properties":{"fid":200,"id":"WT104","Name":"St George's Hill Water Tower","name1_text":"Byfleet, New Haw and West Byfleet","name1":"Whiteley Village","Name_2":null,"Name_3":"Surrey"},"geometry":{"type":"Point","coordinates":[-0.442401378107779,51.352472004624012,99.278399250981053]}},
{"type":"Feature","properties":{"fid":201,"id":"WT105","Name":"Rusper Water Tower","name1_text":"Rusper","name1":"Rusper","Name_2":"Newdigate CP","Name_3":"Surrey"},"geometry":{"type":"Point","coordinates":[-0.279696470737222,51.130417509089483,128.661424442414614]}},
{"type":"Feature","properties":{"fid":202,"id":"WT106","Name":"Buckland Water Tower","name1_text":"Betchworth and Buckland","name1":"Buckland","Name_2":"Buckland CP","Name_3":"Surrey"},"geometry":{"type":"Point","coordinates":[-0.251804229248942,51.244102667704077,81.278089165495658]}},
{"type":"Feature","properties":{"fid":203,"id":"WT107","Name":"Tadworth Water Tower","name1_text":"Tadworth and Epsom Downs","name1":"Tadworth","Name_2":null,"Name_3":"Surrey"},"geometry":{"type":"Point","coordinates":[-0.2329318437171,51.287040328583522,190.542355572651786]}},
{"type":"Feature","properties":{"fid":204,"id":"WT108","Name":"Colley Hill Water Tower","name1_text":"Reigate","name1":"Mogador","Name_2":null,"Name_3":"Surrey"},"geometry":{"type":"Point","coordinates":[-0.216195022516392,51.256828238616229,243.833290707231612]}},
{"type":"Feature","properties":{"fid":205,"id":"WT109","Name":"Margery Wood Water Tower","name1_text":"Reigate","name1":"Margery","Name_2":null,"Name_3":"Surrey"},"geometry":{"type":"Point","coordinates":[-0.200440551933685,51.254568011661092,242.272031033263602]}},
{"type":"Feature","properties":{"fid":206,"id":"WT110","Name":"Gravelly Tower","name1_text":"Caterham","name1":"Tyler's Green","Name_2":"Caterham Valley CP","Name_3":"Surrey"},"geometry":{"type":"Point","coordinates":[-0.08482698733861,51.262510889180959,252.231024664112113]}},
{"type":"Feature","properties":{"fid":207,"id":"WT111","Name":"Woldingham Water Tower","name1_text":"Woldingham","name1":"The Ridge","Name_2":"Oxted CP","Name_3":"Surrey"},"geometry":{"type":"Point","coordinates":[-0.013178125483358,51.279057808663651,266.910745033001888]}},
{"type":"Feature","properties":{"fid":208,"id":"WT112","Name":"Warlingham Water Tower","name1_text":"Warlingham","name1":"Greatpark","Name_2":"Chelsham and Farleigh CP","Name_3":"Surrey"},"geometry":{"type":"Point","coordinates":[-0.030244379009975,51.318843299663023,215.710161581878111]}},
{"type":"Feature","properties":{"fid":209,"id":"WT113","Name":"Polesden Lacey Water Tower 2","name1_text":"Great Bookham and Fetcham","name1":"Polesden Lacey","Name_2":null,"Name_3":"Surrey"},"geometry":{"type":"Point","coordinates":[-0.375251527399427,51.258129390428152,142.142416157220509]}},
{"type":"Feature","properties":{"fid":210,"id":"WT114","Name":"Polesden Lacey Water Tower 1","name1_text":"Great Bookham and Fetcham","name1":"Polesden Lacey","Name_2":null,"Name_3":"Surrey"},"geometry":{"type":"Point","coordinates":[-0.373759811364861,51.25891047544328,144.869833759182711]}},
{"type":"Feature","properties":{"fid":211,"id":"WT115","Name":"Betchwortth Water Tower","name1_text":"Betchworth and Buckland","name1":"Betchworth","Name_2":"Betchworth CP","Name_3":"Surrey"},"geometry":{"type":"Point","coordinates":[-0.271257622429256,51.248979584405618,106.096557226631603]}},
{"type":"Feature","properties":{"fid":212,"id":"WT117","Name":"Horton Park Water Tower","name1_text":"Epsom","name1":"Manor Park","Name_2":null,"Name_3":"Surrey"},"geometry":{"type":"Point","coordinates":[-0.288835345803238,51.345012263786977,68.970152733196841]}},
{"type":"Feature","properties":{"fid":213,"id":"WT118","Name":"Netherne Water Tower","name1_text":"Netherne on-the-Hill","name1":"Netherne on-the-Hill","Name_2":null,"Name_3":"Surrey"},"geometry":{"type":"Point","coordinates":[-0.143169765457319,51.290022853449329,197.144272960291488]}},
{"type":"Feature","properties":{"fid":214,"id":"WT120","Name":"St Ebba's Water Tower","name1_text":"Epsom","name1":"Livingstone Park","Name_2":null,"Name_3":"Surrey"},"geometry":{"type":"Point","coordinates":[-0.274284346281697,51.349017451131907,57.233769355531813]}},
{"type":"Feature","properties":{"fid":215,"id":"WT121","Name":"West Park Asylum Water Tower","name1_text":"Epsom","name1":"Manor Park","Name_2":null,"Name_3":"Surrey"},"geometry":{"type":"Point","coordinates":[-0.300337155576694,51.339041085744469,85.456427093161778]}},
{"type":"Feature","properties":{"fid":216,"id":"WT123","Name":"Willey Farm Water Tower","name1_text":"Chaldon","name1":"Chaldon","Name_2":"Chaldon CP","Name_3":"Surrey"},"geometry":{"type":"Point","coordinates":[-0.105959957439668,51.271622153585042,229.887837738557607]}},
{"type":"Feature","properties":{"fid":217,"id":"WT124","Name":"Broadwood Water Tower","name1_text":"Rusper","name1":"Rusper","Name_2":"Capel CP","Name_3":"Surrey"},"geometry":{"type":"Point","coordinates":[-0.300708572241078,51.133313495558163,104.061169566333504]}},
{"type":"Feature","properties":{"fid":218,"id":"WT125","Name":"Dorking Water Tower","name1_text":"Dorking","name1":"Tower Hill","Name_2":null,"Name_3":"Surrey"},"geometry":{"type":"Point","coordinates":[-0.328269558116668,51.222742238408308,120.841946670528799]}},
{"type":"Feature","properties":{"fid":219,"id":"WT126","Name":"Tattenham Estate Water Tower","name1_text":"Tadworth and Epsom Downs","name1":"Great Burgh","Name_2":null,"Name_3":"Surrey"},"geometry":{"type":"Point","coordinates":[-0.233351060812478,51.302619626145407,177.452239087092607]}},
{"type":"Feature","properties":{"fid":220,"id":"WT127","Name":"Earlswood Water Tower","name1_text":"Redhill (Reigate and Banstead)","name1":"South Earlswood","Name_2":null,"Name_3":"Surrey"},"geometry":{"type":"Point","coordinates":[-0.166943545070933,51.222754442817703,101.947742129714598]}},
{"type":"Feature","properties":{"fid":221,"id":"WT418","Name":"Lapworth Water Tower","name1_text":"Kingswood (Warwick)","name1":"Kingswood","Name_2":"Lapworth CP","Name_3":"Warwickshire"},"geometry":{"type":"Point","coordinates":[-1.743404822205675,52.33723794534523,160.167413303029093]}},
{"type":"Feature","properties":{"fid":222,"id":"WT419","Name":"Lye Green Water Tower","name1_text":"Claverdon","name1":"Lye Green","Name_2":"Claverdon CP","Name_3":"Warwickshire"},"geometry":{"type":"Point","coordinates":[-1.711818026937806,52.288604609373813,146.254677477968698]}},
{"type":"Feature","properties":{"fid":223,"id":"WT420","Name":"Hampton on the Hill Water Tower","name1_text":"Hampton Magna","name1":"Hampton on the Hill","Name_2":"Budbrooke CP","Name_3":"Warwickshire"},"geometry":{"type":"Point","coordinates":[-1.632940117604644,52.277474858758367,106.353608187207101]}},
{"type":"Feature","properties":{"fid":224,"id":"WT421","Name":"Cromwell Lane Water Tower","name1_text":"Burton Green","name1":"Burton Green","Name_2":"Burton Green CP","Name_3":"Warwickshire"},"geometry":{"type":"Point","coordinates":[-1.602541500572245,52.384566759363842,154.586589458984406]}},
{"type":"Feature","properties":{"fid":225,"id":"WT422","Name":"Hob Lane Water Tower","name1_text":"Burton Green","name1":"Burton Green","Name_2":"Burton Green CP","Name_3":"Warwickshire"},"geometry":{"type":"Point","coordinates":[-1.607896889786545,52.375443877957537,144.257401205190291]}},
{"type":"Feature","properties":{"fid":226,"id":"WT423","Name":"Tainters Hill Water Tower","name1_text":"Kenilworth","name1":"Ladyes Hills","Name_2":"Kenilworth CP","Name_3":"Warwickshire"},"geometry":{"type":"Point","coordinates":[-1.576038549853402,52.352409883701377,105.526875811244196]}},
{"type":"Feature","properties":{"fid":227,"id":"WT424","Name":"Corley Water Tower","name1_text":"Corley","name1":"Corley","Name_2":"Corley CP","Name_3":"Warwickshire"},"geometry":{"type":"Point","coordinates":[-1.564626154906129,52.462941274328237,196.496298373933001]}},
{"type":"Feature","properties":{"fid":228,"id":"WT425","Name":"Bedworth Water Tower","name1_text":"Bedworth","name1":"Black Bank","Name_2":null,"Name_3":"Warwickshire"},"geometry":{"type":"Point","coordinates":[-1.479385409073962,52.475990999804758,148.043093042500601]}},
{"type":"Feature","properties":{"fid":229,"id":"WT426","Name":"Offchurch Water Tower","name1_text":"Radford Semele","name1":"Hunningham","Name_2":"Offchurch CP","Name_3":"Warwickshire"},"geometry":{"type":"Point","coordinates":[-1.451091050064192,52.286728450624473,115.223243472424102]}},
{"type":"Feature","properties":{"fid":230,"id":"WT427","Name":"Edge Hill Water Tower","name1_text":"Radway","name1":"Knowle End","Name_2":"Ratley and Upton CP","Name_3":"Warwickshire"},"geometry":{"type":"Point","coordinates":[-1.443914982071181,52.131766270911989,218.116240901836704]}},
{"type":"Feature","properties":{"fid":231,"id":"WT428","Name":"Ashlawn Road Water Tower","name1_text":"Rugby","name1":"Overslade","Name_2":null,"Name_3":"Warwickshire"},"geometry":{"type":"Point","coordinates":[-1.257078434190454,52.351971648852427,148.843672574446288]}},
{"type":"Feature","properties":{"fid":232,"id":"WT429","Name":"Hatton Park Water Tower 1","name1_text":"Hatton (Warwick)","name1":"Hatton","Name_2":"Hatton CP","Name_3":"Warwickshire"},"geometry":{"type":"Point","coordinates":[-1.635183757435108,52.301285684704382,115.305633322277501]}},
{"type":"Feature","properties":{"fid":233,"id":"WT430","Name":"Hatton Park Water Tower 2","name1_text":"Hatton (Warwick)","name1":"Hatton","Name_2":"Hatton CP","Name_3":"Warwickshire"},"geometry":{"type":"Point","coordinates":[-1.633787388749588,52.30191083021144,123.724123832272994]}},
{"type":"Feature","properties":{"fid":234,"id":"WT431","Name":"Coundon Water Tower","name1_text":"Coventry","name1":"Spon End","Name_2":null,"Name_3":"West Midlands"},"geometry":{"type":"Point","coordinates":[-1.520894658168465,52.413809263428988,104.5596144546722]}},
{"type":"Feature","properties":{"fid":235,"id":"WT502","Name":"Wordsley Water Tower","name1_text":"Kingswinford","name1":"Ridge Hill","Name_2":null,"Name_3":"West Midlands"},"geometry":{"type":"Point","coordinates":[-2.159753198287225,52.48518989523555,116.852725910736595]}},
{"type":"Feature","properties":{"fid":236,"id":"WT503","Name":"Goldthorm Hill Water Tower","name1_text":"Wolverhampton","name1":"Blakenhall","Name_2":null,"Name_3":"West Midlands"},"geometry":{"type":"Point","coordinates":[-2.133784289913079,52.567979531958109,189.1665117267315]}},
{"type":"Feature","properties":{"fid":237,"id":"WT504","Name":"Warley Park Water Tower","name1_text":"Oldbury (Sandwell)","name1":"Warley Woods","Name_2":null,"Name_3":"West Midlands"},"geometry":{"type":"Point","coordinates":[-1.988263611856708,52.470001562498723,249.111966759926986]}},
{"type":"Feature","properties":{"fid":238,"id":"WT505","Name":"Hollymoor Hospital Water Tower","name1_text":"Birmingham","name1":"Longbridge","Name_2":null,"Name_3":"West Midlands"},"geometry":{"type":"Point","coordinates":[-1.99676325574867,52.404494081531531,230.885008801093306]}},
{"type":"Feature","properties":{"fid":239,"id":"WT615","Name":"Gawthorpe Water Tower","name1_text":"Dewsbury","name1":"Chidswell","Name_2":null,"Name_3":"West Yorkshire"},"geometry":{"type":"Point","coordinates":[-1.593987433464967,53.69931258676035,165.204646570249594]}},
{"type":"Feature","properties":{"fid":240,"id":"WT616","Name":"Middleton Water Tower","name1_text":"Leeds","name1":"Middleton","Name_2":null,"Name_3":"West Yorkshire"},"geometry":{"type":"Point","coordinates":[-1.555291577330435,53.749717305759923,160.010186661514098]}},
{"type":"Feature","properties":{"fid":241,"id":"WT617","Name":"Moortown Water Tower","name1_text":"Leeds","name1":"Alwoodley","Name_2":null,"Name_3":"West Yorkshire"},"geometry":{"type":"Point","coordinates":[-1.534824998496426,53.850694158210977,187.50354498946669]}},
{"type":"Feature","properties":{"fid":242,"id":"WT618","Name":"Garforth Water Tower","name1_text":"Garforth","name1":"Kippax Common","Name_2":null,"Name_3":"West Yorkshire"},"geometry":{"type":"Point","coordinates":[-1.372539635064969,53.783394982255388,102.334738677397198]}},
{"type":"Feature","properties":{"fid":243,"id":"WT619","Name":"Red Hill Water Tower","name1_text":"Castleford","name1":"Glass Houghton","Name_2":null,"Name_3":"West Yorkshire"},"geometry":{"type":"Point","coordinates":[-1.331354230171452,53.720636641558833,72.545197321188766]}},
{"type":"Feature","properties":{"fid":244,"id":"WT620","Name":"Ackworth Water Tower","name1_text":"High Ackworth","name1":"High Ackworth","Name_2":"Ackworth CP","Name_3":"West Yorkshire"},"geometry":{"type":"Point","coordinates":[-1.324201209842208,53.665554544676652,74.680089614058431]}},
{"type":"Feature","properties":{"fid":245,"id":"WT621","Name":"Upton Water Tower","name1_text":"Upton (Wakefield)","name1":"Hill Estate","Name_2":"Upton and North Elmsall CP","Name_3":"West Yorkshire"},"geometry":{"type":"Point","coordinates":[-1.283828159468184,53.619856266548958,93.351867699858474]}},
{"type":"Feature","properties":{"fid":246,"id":"WT622","Name":"Brabham Park Water Tower","name1_text":"Bramham","name1":"Kiddal Lane End","Name_2":"Bramham cum Oglethorpe CP","Name_3":"West Yorkshire"},"geometry":{"type":"Point","coordinates":[-1.381062344350796,53.866737771120107,74.44298816100374]}},
{"type":"Feature","properties":{"fid":247,"id":"WT623","Name":"Bolles Water Tower","name1_text":"Wakefield","name1":"Heath","Name_2":"Warmfield cum Heath CP","Name_3":"West Yorkshire"},"geometry":{"type":"Point","coordinates":[-1.468663234067941,53.675072886086113,38.439117000695028]}},
{"type":"Feature","properties":{"fid":248,"id":"WT624","Name":"Lumbutts Water Tower","name1_text":"Mankinholes","name1":"Lumbutts","Name_2":"Todmorden CP","Name_3":"West Yorkshire"},"geometry":{"type":"Point","coordinates":[-2.067289528664475,53.70731611305559,191.809822190466008]}},
{"type":"Feature","properties":{"fid":249,"id":"WT625","Name":"Pontefract Water Tower","name1_text":"Pontefract","name1":"Marl Pits","Name_2":null,"Name_3":"West Yorkshire"},"geometry":{"type":"Point","coordinates":[-1.331860454008791,53.693940900592892,84.095909938432953]}},
{"type":"Feature","properties":{"fid":250,"id":"WT626","Name":"Bradley Water Tower","name1_text":"Huddersfield","name1":"Colne Bridge","Name_2":null,"Name_3":"West Yorkshire"},"geometry":{"type":"Point","coordinates":[-1.736874002591632,53.682694666993797,56.480809590655483]}},
{"type":"Feature","properties":{"fid":251,"id":"WT627","Name":"Midgley Water Tower","name1_text":"Flockton","name1":"Overton","Name_2":"Sitlington CP","Name_3":"West Yorkshire"},"geometry":{"type":"Point","coordinates":[-1.607236849570912,53.629909031320253,160.782979325858406]}},
{"type":"Feature","properties":{"fid":252,"id":"WT628","Name":"Huddersfield Station Water Tower","name1_text":"Huddersfield","name1":"Shearing Cross","Name_2":null,"Name_3":"West Yorkshire"},"geometry":{"type":"Point","coordinates":[-1.783589145925855,53.649445889799843,96.201836617945233]}},
{"type":"Feature","properties":{"fid":253,"id":"WT629","Name":"Oxenhope Station Water Tower","name1_text":"Oxenhope","name1":"Oxenhope","Name_2":"Oxenhope CP","Name_3":"West Yorkshire"},"geometry":{"type":"Point","coordinates":[-1.952545583080582,53.81482507581353,197.746950744008188]}},
{"type":"Feature","properties":{"fid":254,"id":"WT630","Name":"Brighouse Water Tower","name1_text":"Brighouse","name1":"Brighouse","Name_2":null,"Name_3":"West Yorkshire"},"geometry":{"type":"Point","coordinates":[-1.781500006129787,53.699601411993243,81.424223673407653]}},
{"type":"Feature","properties":{"fid":255,"id":"WT631","Name":"Canal Mills Water Tower","name1_text":"Leeds","name1":"New Wortley","Name_2":null,"Name_3":"West Yorkshire"},"geometry":{"type":"Point","coordinates":[-1.567558749079818,53.796872018376583,50.787047178550829]}},
{"type":"Feature","properties":{"fid":256,"id":"WT046","Name":"Colerne Water Tower","name1_text":"Colerne","name1":"Colerne","Name_2":"Colerne CP","Name_3":"Wiltshire"},"geometry":{"type":"Point","coordinates":[-2.273528997757791,51.438334631320018,172.817684156713796]}},
{"type":"Feature","properties":{"fid":257,"id":"WT047","Name":"Sherstone Water Tower","name1_text":"Sherston","name1":"Sherston","Name_2":"Sherston CP","Name_3":"Wiltshire"},"geometry":{"type":"Point","coordinates":[-2.220133086121309,51.575555579121179,128.185392978761314]}},
{"type":"Feature","properties":{"fid":258,"id":"WT048","Name":"Yatton Keynall Water Tower","name1_text":"Yatton Keynell","name1":"Sevington","Name_2":"Yatton Keynell CP","Name_3":"Wiltshire"},"geometry":{"type":"Point","coordinates":[-2.195020002088746,51.497828942825961,131.916283307721898]}},
{"type":"Feature","properties":{"fid":259,"id":"WT049","Name":"Rodbourne Water Tower","name1_text":"Corston (Wiltshire)","name1":"Rodbourne","Name_2":"St. Paul Malmesbury Without CP","Name_3":"Wiltshire"},"geometry":{"type":"Point","coordinates":[-2.099100125135394,51.549236305185673,90.893675038778852]}},
{"type":"Feature","properties":{"fid":260,"id":"WT050","Name":"Whychurch Water Tower","name1_text":"Malmesbury","name1":"Filands","Name_2":"Malmesbury CP","Name_3":"Wiltshire"},"geometry":{"type":"Point","coordinates":[-2.089466846387754,51.591936383845969,91.972707137206342]}},
{"type":"Feature","properties":{"fid":261,"id":"WT051","Name":"Minety Water Tower","name1_text":"Upper Minety","name1":"Upper Minety","Name_2":"Charlton CP","Name_3":"Wiltshire"},"geometry":{"type":"Point","coordinates":[-1.99499580446551,51.596445431118617,125.157331517967407]}},
{"type":"Feature","properties":{"fid":262,"id":"WT052","Name":"Broad Hinton Water Tower","name1_text":"Broad Hinton","name1":"Broad Hinton","Name_2":"Broad Hinton CP","Name_3":"Wiltshire"},"geometry":{"type":"Point","coordinates":[-1.850378680850416,51.493313022043047,194.610987324628013]}},
{"type":"Feature","properties":{"fid":263,"id":"WT053","Name":"Wexcombe Down Water Tower","name1_text":"East Grafton","name1":"Wexcombe","Name_2":"Grafton CP","Name_3":"Wiltshire"},"geometry":{"type":"Point","coordinates":[-1.61660723927312,51.327166447517612,214.891960289765308]}},
{"type":"Feature","properties":{"fid":264,"id":"WT054","Name":"Baydon Water Tower","name1_text":"Baydon","name1":"Baydon","Name_2":"Baydon CP","Name_3":"Wiltshire"},"geometry":{"type":"Point","coordinates":[-1.587338247660975,51.498964076993488,229.741691646089805]}},
{"type":"Feature","properties":{"fid":265,"id":"WT055","Name":"Hullavington Water Tower","name1_text":"Lower Stanton St Quintin","name1":"Lower Stanton St Quintin","Name_2":"St. Paul Malmesbury Without CP","Name_3":"Wiltshire"},"geometry":{"type":"Point","coordinates":[-2.128472179335743,51.53049821866005,92.865974002163625]}},
{"type":"Feature","properties":{"fid":266,"id":"WT056","Name":"Swindon Railway Water Tower","name1_text":"Swindon (Swindon)","name1":"Kingshill","Name_2":"South Swindon CP","Name_3":"Wiltshire"},"geometry":{"type":"Point","coordinates":[-1.793423300757512,51.561509163111872,98.837206612121349]}},
{"type":"Feature","properties":{"fid":267,"id":"WT058","Name":"Druids Lodge Water Tower","name1_text":"South Newton","name1":"Winterbourne Stoke","Name_2":"Woodford CP","Name_3":"Wiltshire"},"geometry":{"type":"Point","coordinates":[-1.858755627385654,51.151246573592921,130.866788264333195]}},
{"type":"Feature","properties":{"fid":268,"id":"WT059","Name":"Stonehenge Water Tower","name1_text":"Shrewton","name1":"Berwick St James","Name_2":"Berwick St. James CP","Name_3":"Wiltshire"},"geometry":{"type":"Point","coordinates":[-1.925785788427198,51.164312343503163,133.431716821861187]}},
{"type":"Feature","properties":{"fid":269,"id":"WT060","Name":"Cotswold Airfield Water Tower 1","name1_text":"Rodmarton","name1":"Chelworth","Name_2":"Crudwell CP","Name_3":"Wiltshire"},"geometry":{"type":"Point","coordinates":[-2.055523381729689,51.660521907897483,121.576974853092295]}},
{"type":"Feature","properties":{"fid":270,"id":"WT061","Name":"Cotswold Airfield Water Tower 2","name1_text":"Rodmarton","name1":"Chelworth","Name_2":"Crudwell CP","Name_3":"Wiltshire"},"geometry":{"type":"Point","coordinates":[-2.055896011533422,51.662534926034979,125.877931146973097]}},
{"type":"Feature","properties":{"fid":271,"id":"WT388","Name":"Upton Water Tower","name1_text":"Ryall","name1":"The Grove","Name_2":"Earl's Croome CP","Name_3":"Worcestershire"},"geometry":{"type":"Point","coordinates":[-2.196726282234251,52.070339664361569,18.49548017878298]}},
{"type":"Feature","properties":{"fid":272,"id":"WT390","Name":"Broadheath Water Tower","name1_text":"Eardiston","name1":"Broad Heath","Name_2":"Hanley CP","Name_3":"Worcestershire"},"geometry":{"type":"Point","coordinates":[-2.494010175076313,52.284662171488172,245.554299427102393]}},
{"type":"Feature","properties":{"fid":273,"id":"WT391","Name":"Longbank Water Tower","name1_text":"Callow Hill","name1":"Long Bank","Name_2":"Bewdley CP","Name_3":"Worcestershire"},"geometry":{"type":"Point","coordinates":[-2.356645755376219,52.364913539574147,164.109034197025608]}},
{"type":"Feature","properties":{"fid":274,"id":"WT392","Name":"Bishops Wood Water Tower","name1_text":"Crossway Green","name1":"Crossway Green","Name_2":"Hartlebury CP","Name_3":"Worcestershire"},"geometry":{"type":"Point","coordinates":[-2.244489283765936,52.313460390974321,105.427658977572094]}},
{"type":"Feature","properties":{"fid":275,"id":"WT393","Name":"Uphampton Water Tower","name1_text":"Uphampton","name1":"Uphampton","Name_2":"Ombersley CP","Name_3":"Worcestershire"},"geometry":{"type":"Point","coordinates":[-2.237394011425953,52.275067237910847,60.906377976983421]}},
{"type":"Feature","properties":{"fid":276,"id":"WT394","Name":"Hartlebury Water Tower","name1_text":"Hartlebury","name1":"Podmoor","Name_2":"Hartlebury CP","Name_3":"Worcestershire"},"geometry":{"type":"Point","coordinates":[-2.212358375976367,52.350572792294358,76.799017718582348]}},
{"type":"Feature","properties":{"fid":277,"id":"WT395","Name":"Droitwich Water Tower","name1_text":"Droitwich Spa","name1":"Primsland","Name_2":"Droitwich Spa CP","Name_3":"Worcestershire"},"geometry":{"type":"Point","coordinates":[-2.143160932199137,52.252478994014062,77.395287631693137]}},
{"type":"Feature","properties":{"fid":278,"id":"WT396","Name":"Romsley Hill Water Tower","name1_text":"Romsley","name1":"Dayhouse Bank","Name_2":"Romsley CP","Name_3":"Worcestershire"},"geometry":{"type":"Point","coordinates":[-2.060575198534009,52.40576617427066,283.391317037225008]}},
{"type":"Feature","properties":{"fid":279,"id":"WT397","Name":"Headless Cross Water Tower 1","name1_text":"Redditch","name1":"Headless Cross","Name_2":null,"Name_3":"Worcestershire"},"geometry":{"type":"Point","coordinates":[-1.944523194814258,52.292350219394152,165.897752465192497]}},
{"type":"Feature","properties":{"fid":280,"id":"WT398","Name":"Headless Cross Water Tower 2","name1_text":"Redditch","name1":"Headless Cross","Name_2":null,"Name_3":"Worcestershire"},"geometry":{"type":"Point","coordinates":[-1.946588636518117,52.293688312176343,167.526788997842004]}},
{"type":"Feature","properties":{"fid":281,"id":"WT399","Name":"Weatheroak Hill Water Tower","name1_text":"Wythall","name1":"Weatheroak Hill","Name_2":"Alvechurch CP","Name_3":"Worcestershire"},"geometry":{"type":"Point","coordinates":[-1.913447367581762,52.364094678339619,184.660476761633703]}},
{"type":"Feature","properties":{"fid":282,"id":"WT400","Name":"Winterfold Water Tower","name1_text":"Mustow Green","name1":"Winterfold","Name_2":"Chaddesley Corbett CP","Name_3":"Worcestershire"},"geometry":{"type":"Point","coordinates":[-2.185807017605378,52.363386902565281,93.701201074390539]}},
{"type":"Feature","properties":{"fid":283,"id":"WT401","Name":"Trimpley Water Tower","name1_text":"Trimpley","name1":"Trimpley","Name_2":"Kidderminster Foreign CP","Name_3":"Worcestershire"},"geometry":{"type":"Point","coordinates":[-2.31202299921601,52.407079121109888,180.747316747297305]}},
{"type":"Feature","properties":{"fid":284,"id":"WT402","Name":"North Malvern Water Tower","name1_text":"Great Malvern","name1":"North Malvern","Name_2":"Malvern CP","Name_3":"Worcestershire"},"geometry":{"type":"Point","coordinates":[-2.337486147857273,52.121148621901433,177.315012354191595]}},
{"type":"Feature","properties":{"fid":285,"id":"WT403","Name":"Worcester Water Tower","name1_text":"Worcester","name1":"Barbourne","Name_2":null,"Name_3":"Worcestershire"},"geometry":{"type":"Point","coordinates":[-2.234141068858901,52.207862748882313,16.44669650971991]}},
{"type":"Feature","properties":{"fid":286,"id":"WT404","Name":"Impney Hall Water Tower","name1_text":"Droitwich Spa","name1":"Rashwood","Name_2":"Dodderhill CP","Name_3":"Worcestershire"},"geometry":{"type":"Point","coordinates":[-2.130144477726618,52.276409971973337,64.038061694515378]}},
{"type":"Feature","properties":{"fid":287,"id":"WT405","Name":"Kidderminster Station Water Tower","name1_text":"Kidderminster","name1":"Aggborough","Name_2":"Kidderminster CP","Name_3":"Worcestershire"},"geometry":{"type":"Point","coordinates":[-2.240074537331014,52.381764875105723,59.656252972270082]}},
{"type":"Feature","properties":{"fid":288,"id":"WT406","Name":"Bewdley Station Water Towers","name1_text":"Bewdley","name1":"Wribbenhall","Name_2":"Bewdley CP","Name_3":"Worcestershire"},"geometry":{"type":"Point","coordinates":[-2.305037748553116,52.37531178283016,39.837043532163761]}},
{"type":"Feature","properties":{"fid":289,"id":"WT407","Name":"Blackmore Park Water Towers","name1_text":"Great Malvern","name1":"Poolbrook","Name_2":"Hanley Castle CP","Name_3":"Worcestershire"},"geometry":{"type":"Point","coordinates":[-2.300717680909501,52.090576015551989,49.199062090114282]}},
{"type":"Feature","properties":{"fid":290,"id":"WT408","Name":"Hewell Grange Water Tower","name1_text":"Tardebigge","name1":"Tardebigge","Name_2":"Tutnall and Cobley CP","Name_3":"Worcestershire"},"geometry":{"type":"Point","coordinates":[-1.994101271939088,52.31647049931108,166.212751784113806]}},
{"type":"Feature","properties":{"fid":291,"id":"WT389","Name":"Broomy Hill Water Tower","name1_text":"Hereford","name1":"Broomy Hill","Name_2":"Hereford CP","Name_3":"Herefordshire"},"geometry":{"type":"Point","coordinates":[-2.736302357759438,52.05179217593686,73.91001175618679]}},
{"type":"Feature","properties":{"fid":292,"id":"WT660","Name":"Foel Water Tower","name1_text":"Rhaeadr Gwy","name1":"Pentre Elan","Name_2":"Rhayader Community","Name_3":"Powys"},"geometry":{"type":"Point","coordinates":[-3.597710580709666,52.26398134171442,264.587094478459619]}},
{"type":"Feature","properties":{"fid":293,"id":"WT078","Name":"Ladywell Baths Water Tower","name1_text":"Lewisham","name1":"Lewisham","Name_2":null,"Name_3":"Greater London"},"geometry":{"type":"Point","coordinates":[-0.01671609559038,51.456539525112632,23.03483081391461]}},
{"type":"Feature","properties":{"fid":294,"id":"WT079","Name":"Southall Castle Water Tower","name1_text":"Ealing","name1":"Southall","Name_2":null,"Name_3":"Greater London"},"geometry":{"type":"Point","coordinates":[-0.381217866676358,51.505943871091183,51.09827216603243]}},
{"type":"Feature","properties":{"fid":295,"id":"WT080","Name":"Allenby Road Water Tower","name1_text":"Ealing","name1":"Dormer's Wells","Name_2":null,"Name_3":"Greater London"},"geometry":{"type":"Point","coordinates":[-0.368062323856398,51.528108466117388,66.835855215099812]}},
{"type":"Feature","properties":{"fid":296,"id":"WT081","Name":"Arkley Water Tower","name1_text":"Barnet","name1":"Arkley","Name_2":null,"Name_3":"Greater London"},"geometry":{"type":"Point","coordinates":[-0.239010905789488,51.64692745527811,155.873282114738004]}},
{"type":"Feature","properties":{"fid":297,"id":"WT082","Name":"Plumridge Hill Water Tower","name1_text":"Enfield","name1":"Hadley Wood","Name_2":null,"Name_3":"Greater London"},"geometry":{"type":"Point","coordinates":[-0.157449602210361,51.683551054107298,128.617095816648714]}},
{"type":"Feature","properties":{"fid":298,"id":"WT083","Name":"Cockfosters Water Tower","name1_text":"Enfield","name1":"Cockfosters","Name_2":null,"Name_3":"Greater London"},"geometry":{"type":"Point","coordinates":[-0.152349891673891,51.658798734226053,121.605142194624406]}},
{"type":"Feature","properties":{"fid":299,"id":"WT084","Name":"Park Hill Water Tower","name1_text":"Croydon","name1":"Croydon","Name_2":null,"Name_3":"Greater London"},"geometry":{"type":"Point","coordinates":[-0.09005666357794,51.36853414427857,112.304433350981697]}},
{"type":"Feature","properties":{"fid":300,"id":"WT085","Name":"Addington Water Tower 2","name1_text":"Croydon","name1":"Upper Shirley","Name_2":null,"Name_3":"Greater London"},"geometry":{"type":"Point","coordinates":[-0.056657227161381,51.359511788716617,162.001345655102114]}},
{"type":"Feature","properties":{"fid":301,"id":"WT086","Name":"Addington Water Tower 1","name1_text":"Croydon","name1":"Upper Shirley","Name_2":null,"Name_3":"Greater London"},"geometry":{"type":"Point","coordinates":[-0.061695044125494,51.360676082740063,148.265063810972691]}},
{"type":"Feature","properties":{"fid":302,"id":"WT087","Name":"Foxearth Water Tower","name1_text":"Croydon","name1":"Selsdon","Name_2":null,"Name_3":"Greater London"},"geometry":{"type":"Point","coordinates":[-0.057077236844034,51.349638119611079,163.721096766693307]}},
{"type":"Feature","properties":{"fid":303,"id":"WT088","Name":"Shooters Hill Water Tower 1","name1_text":"Greenwich","name1":"Shooters Hill","Name_2":null,"Name_3":"Greater London"},"geometry":{"type":"Point","coordinates":[0.068483261984396,51.468991548822594,159.457776496030789]}},
{"type":"Feature","properties":{"fid":304,"id":"WT089","Name":"Shooters Hill Water Tower 2","name1_text":"Greenwich","name1":"Shooters Hill","Name_2":null,"Name_3":"Greater London"},"geometry":{"type":"Point","coordinates":[0.048358286052361,51.472095176179103,92.37761974850882]}},
{"type":"Feature","properties":{"fid":305,"id":"WT090","Name":"Kew Gardens Water Tower","name1_text":"Richmond upon Thames","name1":"Kew","Name_2":null,"Name_3":"Greater London"},"geometry":{"type":"Point","coordinates":[-0.290783689164554,51.478410303609571,34.980669567085499]}},
{"type":"Feature","properties":{"fid":306,"id":"WT091","Name":"Carshalton Water Tower","name1_text":"Sutton (Sutton)","name1":"Carshalton","Name_2":null,"Name_3":"Greater London"},"geometry":{"type":"Point","coordinates":[-0.166789520322538,51.365073342162248,53.636439569414648]}},
{"type":"Feature","properties":{"fid":307,"id":"WT092","Name":"Lambeth Workhouse Water Tower","name1_text":"Lambeth","name1":"Newington","Name_2":null,"Name_3":"Greater London"},"geometry":{"type":"Point","coordinates":[-0.10468960783243,51.49263927082837,32.1982676955177]}},
{"type":"Feature","properties":{"fid":308,"id":"WT093","Name":"Kew Bridge Water Tower","name1_text":"Hounslow","name1":"Strand on the Green","Name_2":null,"Name_3":"Greater London"},"geometry":{"type":"Point","coordinates":[-0.290060421194759,51.488671094098692,5.289424778985124]}},
{"type":"Feature","properties":{"fid":309,"id":"WT094","Name":"Culvers Water Tower","name1_text":"Sutton (Sutton)","name1":"The Wrythe","Name_2":null,"Name_3":"Greater London"},"geometry":{"type":"Point","coordinates":[-0.1693672854017,51.376376997382337,32.575356444748508]}},
{"type":"Feature","properties":{"fid":310,"id":"WT095","Name":"Uxbridge Water Tower","name1_text":"Hillingdon","name1":"Uxbridge","Name_2":null,"Name_3":"Greater London"},"geometry":{"type":"Point","coordinates":[-0.472129468333778,51.555661421504617,78.799862173162609]}},
{"type":"Feature","properties":{"fid":311,"id":"WT096","Name":"Winchmore Hill Water Tower","name1_text":"Enfield","name1":"Bush Hill Park","Name_2":null,"Name_3":"Greater London"},"geometry":{"type":"Point","coordinates":[-0.085487526306293,51.641387557405871,55.988419570049068]}},
{"type":"Feature","properties":{"fid":312,"id":"WT097","Name":"Lea-Enfield Water Tower","name1_text":"Enfield","name1":"Enfield Island Village","Name_2":null,"Name_3":"Greater London"},"geometry":{"type":"Point","coordinates":[-0.01606710403999,51.670488497109943,34.65597225763112]}},
{"type":"Feature","properties":{"fid":313,"id":"WT098","Name":"Ladbroke Grove Water Tower","name1_text":"Kensington and Chelsea","name1":"North Kensington","Name_2":null,"Name_3":"Greater London"},"geometry":{"type":"Point","coordinates":[-0.21571129793698,51.526476596267017,52.396287557224461]}},
{"type":"Feature","properties":{"fid":314,"id":"WT116","Name":"Cane Hill Asylum Water Tower","name1_text":"Croydon","name1":"Coulsdon","Name_2":null,"Name_3":"Greater London"},"geometry":{"type":"Point","coordinates":[-0.148432081338978,51.313877245235354,161.329340326057007]}},
{"type":"Feature","properties":{"fid":315,"id":"WT119","Name":"Kenley Water Tower","name1_text":"Croydon","name1":"Kenley","Name_2":null,"Name_3":"Greater London"},"geometry":{"type":"Point","coordinates":[-0.096154731445096,51.323793521889073,97.482648245034952]}},
{"type":"Feature","properties":{"fid":316,"id":"WT122","Name":"Red Lion Water Tower","name1_text":"Kingston upon Thames","name1":"Tolworth","Name_2":null,"Name_3":"Greater London"},"geometry":{"type":"Point","coordinates":[-0.287844038572805,51.379493467867711,47.03755998925778]}},
{"type":"Feature","properties":{"fid":317,"id":"WT039","Name":"Durdham Down Water Tower","name1_text":"Bristol","name1":"Clifton","Name_2":null,"Name_3":"Bristol"},"geometry":{"type":"Point","coordinates":[-2.617989046333631,51.472081134176882,122.8625558540854]}},
{"type":"Feature","properties":{"fid":318,"id":"WT040","Name":"Knowle Water Tower","name1_text":"Bristol","name1":"Upper Knowle","Name_2":null,"Name_3":"Bristol"},"geometry":{"type":"Point","coordinates":[-2.562305044182222,51.433846959730978,101.569577468229795]}},
{"type":"Feature","properties":{"fid":319,"id":"WT021","Name":"Higher Clovelly Water Tower","name1_text":"Woolfardisworthy","name1":"West Town","Name_2":"Clovelly CP","Name_3":"Devon"},"geometry":{"type":"Point","coordinates":[-4.390627649199416,50.982286879585743,218.147884932785388]}},
{"type":"Feature","properties":{"fid":320,"id":"WT022","Name":"Stibb Cross Water Tower","name1_text":"Buckland Brewer","name1":"Tythecott","Name_2":"Buckland Brewer CP","Name_3":"Devon"},"geometry":{"type":"Point","coordinates":[-4.254170053077731,50.923675127949913,196.658946724752695]}},
{"type":"Feature","properties":{"fid":321,"id":"WT023","Name":"Shirwell Cross Water Tower","name1_text":"Goodleigh","name1":"Shirwell Cross","Name_2":"Shirwell CP","Name_3":"Devon"},"geometry":{"type":"Point","coordinates":[-4.016435900470739,51.114957623159313,193.423768999677208]}},
{"type":"Feature","properties":{"fid":322,"id":"WT024","Name":"Dunkeswell Water Tower","name1_text":"Dunkeswell","name1":"Highfield","Name_2":"Dunkeswell CP","Name_3":"Devon"},"geometry":{"type":"Point","coordinates":[-3.230792936643713,50.845673240669349,272.687930380148487]}},
{"type":"Feature","properties":{"fid":323,"id":"WT025","Name":"Newton Ferrers Water Tower","name1_text":"Newton Ferrers","name1":"The Butts","Name_2":"Newton and Noss CP","Name_3":"Devon"},"geometry":{"type":"Point","coordinates":[-4.03191498944512,50.32213915688051,88.085992168172467]}},
{"type":"Feature","properties":{"fid":324,"id":"WT026","Name":"East Prawle Water Tower","name1_text":"Chillington","name1":"East Prawle","Name_2":"Chivelstone CP","Name_3":"Devon"},"geometry":{"type":"Point","coordinates":[-3.713881054193796,50.22270549442392,138.59517498538699]}},
{"type":"Feature","properties":{"fid":325,"id":"WT027","Name":"Jawbone Hill Water Tower","name1_text":"Dartmouth","name1":"Dartmouth","Name_2":"Dartmouth CP","Name_3":"Devon"},"geometry":{"type":"Point","coordinates":[-3.586743767915408,50.344057630214728,166.576432321822608]}},
{"type":"Feature","properties":{"fid":326,"id":"WT028","Name":"Cedars Road Water Tower","name1_text":"Torquay","name1":"Wellswood","Name_2":null,"Name_3":"Devon"},"geometry":{"type":"Point","coordinates":[-3.514840561489891,50.469345595927571,141.497885396581694]}},
{"type":"Feature","properties":{"fid":327,"id":"WT029","Name":"Topsham Water Tower","name1_text":"Topsham","name1":"Topsham","Name_2":null,"Name_3":"Devon"},"geometry":{"type":"Point","coordinates":[-3.463241026864392,50.689365942686301,43.310248972552557]}},
{"type":"Feature","properties":{"fid":328,"id":"WT030","Name":"Broadclyst Tower","name1_text":"Broadclyst","name1":"Dog Village","Name_2":"Broad Clyst CP","Name_3":"Devon"},"geometry":{"type":"Point","coordinates":[-3.443648556379185,50.761349733418797,33.972013548550159]}},
{"type":"Feature","properties":{"fid":329,"id":"WT031","Name":"Seaton Water Tower","name1_text":"Seaton (East Devon)","name1":"Beer","Name_2":"Seaton CP","Name_3":"Devon"},"geometry":{"type":"Point","coordinates":[-3.08729193500518,50.71726442762089,128.48935300968509]}},
{"type":"Feature","properties":{"fid":330,"id":"WT032","Name":"Ivybridge Water Tower","name1_text":"Bittaford","name1":"Moorhaven Village","Name_2":"Ugborough CP","Name_3":"Devon"},"geometry":{"type":"Point","coordinates":[-3.877186769166912,50.401689088043767,182.268788323145912]}},
{"type":"Feature","properties":{"fid":331,"id":"WT033","Name":"Nethercott House Water Tower","name1_text":"Hatherleigh","name1":"Iddesleigh","Name_2":"Iddesleigh CP","Name_3":"Devon"},"geometry":{"type":"Point","coordinates":[-4.040975443273052,50.843301567627257,103.153789983634596]}},
{"type":"Feature","properties":{"fid":332,"id":"WT034","Name":"Royal Naval Hospital Water Tower","name1_text":"Plymouth","name1":"Stoke","Name_2":null,"Name_3":"Devon"},"geometry":{"type":"Point","coordinates":[-4.156334232619649,50.373245585909423,27.937226395132171]}},
{"type":"Feature","properties":{"fid":333,"id":"WT001","Name":"Manning's Heath Water Tower","name1_text":"Poole","name1":"Newtown","Name_2":"Poole CP","Name_3":"Dorset"},"geometry":{"type":"Point","coordinates":[-1.948941011850404,50.744954930801782,57.373330972687661]}},
{"type":"Feature","properties":{"fid":334,"id":"WT002","Name":"Dorchester Water Tower","name1_text":"Dorchester (Dorset)","name1":"Dorchester","Name_2":"Dorchester CP","Name_3":"Dorset"},"geometry":{"type":"Point","coordinates":[-2.449207340001405,50.714162259762183,94.379727911332679]}},
{"type":"Feature","properties":{"fid":335,"id":"WT003","Name":"Bloxworth Water Tower","name1_text":"Winterborne Kingston","name1":"East Bloxworth","Name_2":"Bloxworth CP","Name_3":"Dorset"},"geometry":{"type":"Point","coordinates":[-2.1614977104647,50.750907179091627,52.337491135554252]}},
{"type":"Feature","properties":{"fid":336,"id":"WT004","Name":"Lytchett Matravers Water Tower","name1_text":"Lytchett Matravers","name1":"Lytchett Matravers","Name_2":"Lytchett Matravers CP","Name_3":"Dorset"},"geometry":{"type":"Point","coordinates":[-2.08765468136979,50.761902980599302,98.968007098133853]}},
{"type":"Feature","properties":{"fid":337,"id":"WT005","Name":"Broadstone Water Tower","name1_text":"Poole","name1":"Broadstone","Name_2":"Broadstone CP","Name_3":"Dorset"},"geometry":{"type":"Point","coordinates":[-1.984727594663507,50.762032856849807,93.204821261490821]}},
{"type":"Feature","properties":{"fid":338,"id":"WT006","Name":"Swanage Water Tower","name1_text":"Swanage","name1":"Durlston","Name_2":"Swanage CP","Name_3":"Dorset"},"geometry":{"type":"Point","coordinates":[-1.956014490775874,50.603534856958859,62.921748840595029]}},
{"type":"Feature","properties":{"fid":339,"id":"WT007","Name":"Upper Parkstone Water Tower","name1_text":"Poole","name1":"Upper Parkstone","Name_2":"Poole CP","Name_3":"Dorset"},"geometry":{"type":"Point","coordinates":[-1.942450737241304,50.72820880976608,78.999748400067546]}},
{"type":"Feature","properties":{"fid":340,"id":"WT008","Name":"Westbourne Water Tower","name1_text":"Bournemouth","name1":"Westbourne","Name_2":"Bournemouth CP","Name_3":"Dorset"},"geometry":{"type":"Point","coordinates":[-1.895492361947477,50.72511888166013,17.031268900348149]}},
{"type":"Feature","properties":{"fid":341,"id":"WT009","Name":"Boscombe Water Tower","name1_text":"Bournemouth","name1":"Boscombe","Name_2":"Bournemouth CP","Name_3":"Dorset"},"geometry":{"type":"Point","coordinates":[-1.842519769231492,50.72919376269919,54.881788930502871]}},
{"type":"Feature","properties":{"fid":342,"id":"WT010","Name":"Southbourne Water Tower","name1_text":"Bournemouth","name1":"Southbourne","Name_2":"Bournemouth CP","Name_3":"Dorset"},"geometry":{"type":"Point","coordinates":[-1.800454611108789,50.724932809121412,49.528979616258063]}},
{"type":"Feature","properties":{"fid":343,"id":"WT011","Name":"Leweston Water Tower","name1_text":"Leweston","name1":"Leweston","Name_2":"Lillington CP","Name_3":"Dorset"},"geometry":{"type":"Point","coordinates":[-2.522565926863817,50.90949149272609,117.3764189811004]}},
{"type":"Feature","properties":{"fid":344,"id":"WT012","Name":"Blandford Camp Water Tower","name1_text":"Pimperne","name1":"Pimperne","Name_2":"Tarrant Monkton CP","Name_3":"Dorset"},"geometry":{"type":"Point","coordinates":[-2.124808637812856,50.87487567616509,115.543460045760995]}},
{"type":"Feature","properties":{"fid":345,"id":"WT586","Name":"Goole Water Tower 1","name1_text":"Goole","name1":"Goole","Name_2":"Goole CP","Name_3":"East Riding of Yorkshire"},"geometry":{"type":"Point","coordinates":[-0.878178809926602,53.702418647797487,7.046019286297016]}},
{"type":"Feature","properties":{"fid":346,"id":"WT587","Name":"Goole Water Tower 2","name1_text":"Goole","name1":"Goole","Name_2":"Goole CP","Name_3":"East Riding of Yorkshire"},"geometry":{"type":"Point","coordinates":[-0.87819065803089,53.702204212830154,6.518435130731901]}},
{"type":"Feature","properties":{"fid":347,"id":"WT588","Name":"Spaldington Common Water Tower","name1_text":"Eastrington","name1":"Welham Bridge","Name_2":"Spaldington CP","Name_3":"East Riding of Yorkshire"},"geometry":{"type":"Point","coordinates":[-0.807451340386875,53.788214770216271,6.817219517708127]}},
{"type":"Feature","properties":{"fid":348,"id":"WT589","Name":"Swanland Water Tower","name1_text":"Swanland","name1":"Swanland","Name_2":"Swanland CP","Name_3":"East Riding of Yorkshire"},"geometry":{"type":"Point","coordinates":[-0.504962215388282,53.73652653438748,92.315633809632175]}},
{"type":"Feature","properties":{"fid":349,"id":"WT591","Name":"Leconfield Water Tower","name1_text":"Leconfield","name1":"Leconfield","Name_2":"Leconfield CP","Name_3":"East Riding of Yorkshire"},